{
"type": "FeatureCollection",
"crs": { "type": "name", "properties": { "name": "urn:ogc:def:crs:OGC:1.3:CRS84" } },
"features": [
{ "type": "Feature", "properties": { "NAME": "Amsterdamer Str.\/Gürtel", "KNOTENNUMMER": "317", "TYP": "Ubahn", "NR_STADTTEIL": "503", "STADTTEIL": "Riehl", "NR_STADTBEZIRK": "5", "STADTBEZIRK": "Nippes", "HYPERLINK": "http:\/\/www.kvb-koeln.de\/qr\/317\/", "OBJECTID": 1 }, "geometry": { "type": "Point", "coordinates": [ 6.969100280746362, 50.970849180417972 ] } },
{ "type": "Feature", "properties": { "NAME": "Slabystr.", "KNOTENNUMMER": "315", "TYP": "Ubahn", "NR_STADTTEIL": "503", "STADTTEIL": "Riehl", "NR_STADTBEZIRK": "5", "STADTBEZIRK": "Nippes", "HYPERLINK": "http:\/\/www.kvb-koeln.de\/qr\/315\/", "OBJECTID": 2 }, "geometry": { "type": "Point", "coordinates": [ 6.988116031299673, 50.96659064159747 ] } },
{ "type": "Feature", "properties": { "NAME": "Severinsbrücke", "KNOTENNUMMER": "45", "TYP": "Stadtbahn", "NR_STADTTEIL": "105", "STADTTEIL": "Deutz", "NR_STADTBEZIRK": "1", "STADTBEZIRK": "Innenstadt", "HYPERLINK": "http:\/\/www.kvb-koeln.de\/qr\/45\/", "OBJECTID": 3 }, "geometry": { "type": "Point", "coordinates": [ 6.972484816760434, 50.930450033425181 ] } },
{ "type": "Feature", "properties": { "NAME": "Boltensternstr.", "KNOTENNUMMER": "314", "TYP": "Ubahn", "NR_STADTTEIL": "503", "STADTTEIL": "Riehl", "NR_STADTBEZIRK": "5", "STADTBEZIRK": "Nippes", "HYPERLINK": "http:\/\/www.kvb-koeln.de\/qr\/314\/", "OBJECTID": 4 }, "geometry": { "type": "Point", "coordinates": [ 6.98095271225281, 50.962408114256 ] } },
{ "type": "Feature", "properties": { "NAME": "Zoo\/Flora", "KNOTENNUMMER": "313", "TYP": "Ubahn", "NR_STADTTEIL": "503", "STADTTEIL": "Riehl", "NR_STADTBEZIRK": "5", "STADTBEZIRK": "Nippes", "HYPERLINK": "http:\/\/www.kvb-koeln.de\/qr\/313\/", "OBJECTID": 5 }, "geometry": { "type": "Point", "coordinates": [ 6.973275131039893, 50.957393431967319 ] } },
{ "type": "Feature", "properties": { "NAME": "Kinderkrankenhaus", "KNOTENNUMMER": "316", "TYP": "Stadtbahn", "NR_STADTTEIL": "503", "STADTTEIL": "Riehl", "NR_STADTBEZIRK": "5", "STADTBEZIRK": "Nippes", "HYPERLINK": "http:\/\/www.kvb-koeln.de\/qr\/316\/", "OBJECTID": 6 }, "geometry": { "type": "Point", "coordinates": [ 6.968400980265419, 50.963241059264448 ] } },
{ "type": "Feature", "properties": { "NAME": "Buchforst Waldecker Str.", "KNOTENNUMMER": "569", "TYP": "Stadtbahn", "NR_STADTTEIL": "902", "STADTTEIL": "Buchforst", "NR_STADTBEZIRK": "9", "STADTBEZIRK": "Mülheim", "HYPERLINK": "http:\/\/www.kvb-koeln.de\/qr\/569\/", "OBJECTID": 7 }, "geometry": { "type": "Point", "coordinates": [ 7.005004834155311, 50.951002793262717 ] } },
{ "type": "Feature", "properties": { "NAME": "Ollenhauerring", "KNOTENNUMMER": "298", "TYP": "Stadtbahn", "NR_STADTTEIL": "405", "STADTTEIL": "Bocklemünd\/Mengenich", "NR_STADTBEZIRK": "4", "STADTBEZIRK": "Ehrenfeld", "HYPERLINK": "http:\/\/www.kvb-koeln.de\/qr\/298\/", "OBJECTID": 8 }, "geometry": { "type": "Point", "coordinates": [ 6.871187458713852, 50.97591785859349 ] } },
{ "type": "Feature", "properties": { "NAME": "Merkenich Mitte", "KNOTENNUMMER": "416", "TYP": "Stadtbahn", "NR_STADTTEIL": "601", "STADTTEIL": "Merkenich", "NR_STADTBEZIRK": "6", "STADTBEZIRK": "Chorweiler", "HYPERLINK": "http:\/\/www.kvb-koeln.de\/qr\/416\/", "OBJECTID": 9 }, "geometry": { "type": "Point", "coordinates": [ 6.952985946466827, 51.024467735234197 ] } },
{ "type": "Feature", "properties": { "NAME": "Merkenich", "KNOTENNUMMER": "417", "TYP": "Stadtbahn", "NR_STADTTEIL": "601", "STADTTEIL": "Merkenich", "NR_STADTBEZIRK": "6", "STADTBEZIRK": "Chorweiler", "HYPERLINK": "http:\/\/www.kvb-koeln.de\/qr\/417\/", "OBJECTID": 10 }, "geometry": { "type": "Point", "coordinates": [ 6.947861130605239, 51.028275908219044 ] } },
{ "type": "Feature", "properties": { "NAME": "Rosenhügel", "KNOTENNUMMER": "228", "TYP": "Stadtbahn", "NR_STADTTEIL": "714", "STADTTEIL": "Zündorf", "NR_STADTBEZIRK": "7", "STADTBEZIRK": "Porz", "HYPERLINK": "http:\/\/www.kvb-koeln.de\/qr\/228\/", "OBJECTID": 11 }, "geometry": { "type": "Point", "coordinates": [ 7.060024121719773, 50.874141863834986 ] } },
{ "type": "Feature", "properties": { "NAME": "Zündorf", "KNOTENNUMMER": "486", "TYP": "Stadtbahn", "NR_STADTTEIL": "714", "STADTTEIL": "Zündorf", "NR_STADTBEZIRK": "7", "STADTBEZIRK": "Porz", "HYPERLINK": "http:\/\/www.kvb-koeln.de\/qr\/486\/", "OBJECTID": 12 }, "geometry": { "type": "Point", "coordinates": [ 7.049059801748197, 50.866096525384933 ] } },
{ "type": "Feature", "properties": { "NAME": "Mollwitzstr.", "KNOTENNUMMER": "336", "TYP": "Stadtbahn", "NR_STADTTEIL": "505", "STADTTEIL": "Weidenpesch", "NR_STADTBEZIRK": "5", "STADTBEZIRK": "Nippes", "HYPERLINK": "http:\/\/www.kvb-koeln.de\/qr\/336\/", "OBJECTID": 13 }, "geometry": { "type": "Point", "coordinates": [ 6.948778496118357, 50.978261471014285 ] } },
{ "type": "Feature", "properties": { "NAME": "Scheibenstr.", "KNOTENNUMMER": "337", "TYP": "Stadtbahn", "NR_STADTTEIL": "505", "STADTTEIL": "Weidenpesch", "NR_STADTBEZIRK": "5", "STADTBEZIRK": "Nippes", "HYPERLINK": "http:\/\/www.kvb-koeln.de\/qr\/337\/", "OBJECTID": 14 }, "geometry": { "type": "Point", "coordinates": [ 6.946281407638156, 50.98570685871951 ] } },
{ "type": "Feature", "properties": { "NAME": "Leuchterstr.", "KNOTENNUMMER": "608", "TYP": "Stadtbahn", "NR_STADTTEIL": "907", "STADTTEIL": "Dünnwald", "NR_STADTBEZIRK": "9", "STADTBEZIRK": "Mülheim", "HYPERLINK": "http:\/\/www.kvb-koeln.de\/qr\/608\/", "OBJECTID": 15 }, "geometry": { "type": "Point", "coordinates": [ 7.037653165562801, 50.996445691939641 ] } },
{ "type": "Feature", "properties": { "NAME": "Odenthaler Str.", "KNOTENNUMMER": "609", "TYP": "Stadtbahn", "NR_STADTTEIL": "907", "STADTTEIL": "Dünnwald", "NR_STADTBEZIRK": "9", "STADTBEZIRK": "Mülheim", "HYPERLINK": "http:\/\/www.kvb-koeln.de\/qr\/609\/", "OBJECTID": 16 }, "geometry": { "type": "Point", "coordinates": [ 7.042405700044254, 51.001293513923798 ] } },
{ "type": "Feature", "properties": { "NAME": "Schlebusch", "KNOTENNUMMER": "663", "TYP": "Stadtbahn", "NR_STADTTEIL": "907", "STADTTEIL": "Dünnwald", "NR_STADTBEZIRK": "9", "STADTBEZIRK": "Mülheim", "HYPERLINK": "http:\/\/www.kvb-koeln.de\/qr\/663\/", "OBJECTID": 17 }, "geometry": { "type": "Point", "coordinates": [ 7.044568537314286, 51.018929072539379 ] } },
{ "type": "Feature", "properties": { "NAME": "Ebertplatz", "KNOTENNUMMER": "35", "TYP": "Ubahn", "NR_STADTTEIL": "104", "STADTTEIL": "Neustadt\/Nord", "NR_STADTBEZIRK": "1", "STADTBEZIRK": "Innenstadt", "HYPERLINK": "http:\/\/www.kvb-koeln.de\/qr\/35\/", "OBJECTID": 18 }, "geometry": { "type": "Point", "coordinates": [ 6.958803422171109, 50.95063639912803 ] } },
{ "type": "Feature", "properties": { "NAME": "Reichenspergerplatz", "KNOTENNUMMER": "34", "TYP": "Ubahn", "NR_STADTTEIL": "104", "STADTTEIL": "Neustadt\/Nord", "NR_STADTBEZIRK": "1", "STADTBEZIRK": "Innenstadt", "HYPERLINK": "http:\/\/www.kvb-koeln.de\/qr\/34\/", "OBJECTID": 19 }, "geometry": { "type": "Point", "coordinates": [ 6.964295735625691, 50.95403405227799 ] } },
{ "type": "Feature", "properties": { "NAME": "Christophstr.\/Mediapark", "KNOTENNUMMER": "32", "TYP": "Ubahn", "NR_STADTTEIL": "104", "STADTTEIL": "Neustadt\/Nord", "NR_STADTBEZIRK": "1", "STADTBEZIRK": "Innenstadt", "HYPERLINK": "http:\/\/www.kvb-koeln.de\/qr\/32\/", "OBJECTID": 20 }, "geometry": { "type": "Point", "coordinates": [ 6.942417827103166, 50.94472006442119 ] } },
{ "type": "Feature", "properties": { "NAME": "Friesenplatz", "KNOTENNUMMER": "30", "TYP": "Ubahn", "NR_STADTTEIL": "104", "STADTTEIL": "Neustadt\/Nord", "NR_STADTBEZIRK": "1", "STADTBEZIRK": "Innenstadt", "HYPERLINK": "http:\/\/www.kvb-koeln.de\/qr\/30\/", "OBJECTID": 21 }, "geometry": { "type": "Point", "coordinates": [ 6.939971499680284, 50.940541789369156 ] } },
{ "type": "Feature", "properties": { "NAME": "Hansaring (Stadtbahn)", "KNOTENNUMMER": "17323", "TYP": "Ubahn", "NR_STADTTEIL": "104", "STADTTEIL": "Neustadt\/Nord", "NR_STADTBEZIRK": "1", "STADTBEZIRK": "Innenstadt", "HYPERLINK": "http:\/\/www.kvb-koeln.de\/qr\/17323\/", "OBJECTID": 22 }, "geometry": { "type": "Point", "coordinates": [ 6.951363296308126, 50.948674692357905 ] } },
{ "type": "Feature", "properties": { "NAME": "Hans-Böckler-Platz\/Bf West", "KNOTENNUMMER": "17322", "TYP": "Ubahn", "NR_STADTTEIL": "104", "STADTTEIL": "Neustadt\/Nord", "NR_STADTBEZIRK": "1", "STADTBEZIRK": "Innenstadt", "HYPERLINK": "http:\/\/www.kvb-koeln.de\/qr\/17322\/", "OBJECTID": 23 }, "geometry": { "type": "Point", "coordinates": [ 6.933241747011316, 50.943382484146582 ] } },
{ "type": "Feature", "properties": { "NAME": "Vingst", "KNOTENNUMMER": "521", "TYP": "Ubahn", "NR_STADTTEIL": "803", "STADTTEIL": "Vingst", "NR_STADTBEZIRK": "8", "STADTBEZIRK": "Kalk", "HYPERLINK": "http:\/\/www.kvb-koeln.de\/qr\/521\/", "OBJECTID": 24 }, "geometry": { "type": "Point", "coordinates": [ 7.02169662148164, 50.932780254810304 ] } },
{ "type": "Feature", "properties": { "NAME": "Weiden Schulstr.", "KNOTENNUMMER": "241", "TYP": "Stadtbahn", "NR_STADTTEIL": "307", "STADTTEIL": "Weiden", "NR_STADTBEZIRK": "3", "STADTBEZIRK": "Lindenthal", "HYPERLINK": "http:\/\/www.kvb-koeln.de\/qr\/241\/", "OBJECTID": 25 }, "geometry": { "type": "Point", "coordinates": [ 6.828658101135079, 50.938391882332432 ] } },
{ "type": "Feature", "properties": { "NAME": "Weiden Zentrum", "KNOTENNUMMER": "261", "TYP": "Stadtbahn", "NR_STADTTEIL": "307", "STADTTEIL": "Weiden", "NR_STADTBEZIRK": "3", "STADTBEZIRK": "Lindenthal", "HYPERLINK": "http:\/\/www.kvb-koeln.de\/qr\/261\/", "OBJECTID": 26 }, "geometry": { "type": "Point", "coordinates": [ 6.835029241801844, 50.938247592155697 ] } },
{ "type": "Feature", "properties": { "NAME": "Bahnstr.", "KNOTENNUMMER": "830", "TYP": "Stadtbahn", "NR_STADTTEIL": "307", "STADTTEIL": "Weiden", "NR_STADTBEZIRK": "3", "STADTBEZIRK": "Lindenthal", "HYPERLINK": "http:\/\/www.kvb-koeln.de\/qr\/830\/", "OBJECTID": 27 }, "geometry": { "type": "Point", "coordinates": [ 6.845199243448277, 50.938120438401761 ] } },
{ "type": "Feature", "properties": { "NAME": "Weiden West (Stadtbahn)", "KNOTENNUMMER": "17208", "TYP": "Stadtbahn", "NR_STADTTEIL": "307", "STADTTEIL": "Weiden", "NR_STADTBEZIRK": "3", "STADTBEZIRK": "Lindenthal", "HYPERLINK": "http:\/\/www.kvb-koeln.de\/qr\/17208\/", "OBJECTID": 28 }, "geometry": { "type": "Point", "coordinates": [ 6.815889937429855, 50.940459456362504 ] } },
{ "type": "Feature", "properties": { "NAME": "Am Emberg", "KNOTENNUMMER": "607", "TYP": "Ubahn", "NR_STADTTEIL": "906", "STADTTEIL": "Höhenhaus", "NR_STADTBEZIRK": "9", "STADTBEZIRK": "Mülheim", "HYPERLINK": "http:\/\/www.kvb-koeln.de\/qr\/607\/", "OBJECTID": 29 }, "geometry": { "type": "Point", "coordinates": [ 7.029621155907352, 50.988821987884634 ] } },
{ "type": "Feature", "properties": { "NAME": "Im Weidenbruch", "KNOTENNUMMER": "606", "TYP": "Stadtbahn", "NR_STADTTEIL": "906", "STADTTEIL": "Höhenhaus", "NR_STADTBEZIRK": "9", "STADTBEZIRK": "Mülheim", "HYPERLINK": "http:\/\/www.kvb-koeln.de\/qr\/606\/", "OBJECTID": 30 }, "geometry": { "type": "Point", "coordinates": [ 7.022531087093853, 50.980524274076018 ] } },
{ "type": "Feature", "properties": { "NAME": "Buchheim Frankfurter Str.", "KNOTENNUMMER": "577", "TYP": "Stadtbahn", "NR_STADTTEIL": "903", "STADTTEIL": "Buchheim", "NR_STADTBEZIRK": "9", "STADTBEZIRK": "Mülheim", "HYPERLINK": "http:\/\/www.kvb-koeln.de\/qr\/577\/", "OBJECTID": 31 }, "geometry": { "type": "Point", "coordinates": [ 7.014074722511698, 50.95318065004777 ] } },
{ "type": "Feature", "properties": { "NAME": "Buchheim Herler Str.", "KNOTENNUMMER": "578", "TYP": "Stadtbahn", "NR_STADTTEIL": "903", "STADTTEIL": "Buchheim", "NR_STADTBEZIRK": "9", "STADTBEZIRK": "Mülheim", "HYPERLINK": "http:\/\/www.kvb-koeln.de\/qr\/578\/", "OBJECTID": 32 }, "geometry": { "type": "Point", "coordinates": [ 7.024966104388827, 50.957894791013409 ] } },
{ "type": "Feature", "properties": { "NAME": "Wichheimer Str.", "KNOTENNUMMER": "579", "TYP": "Stadtbahn", "NR_STADTTEIL": "903", "STADTTEIL": "Buchheim", "NR_STADTBEZIRK": "9", "STADTBEZIRK": "Mülheim", "HYPERLINK": "http:\/\/www.kvb-koeln.de\/qr\/579\/", "OBJECTID": 33 }, "geometry": { "type": "Point", "coordinates": [ 7.031280222112558, 50.961506811102545 ] } },
{ "type": "Feature", "properties": { "NAME": "Escher Str.", "KNOTENNUMMER": "326", "TYP": "Ubahn", "NR_STADTTEIL": "507", "STADTTEIL": "Bilderstöckchen", "NR_STADTBEZIRK": "5", "STADTBEZIRK": "Nippes", "HYPERLINK": "http:\/\/www.kvb-koeln.de\/qr\/326\/", "OBJECTID": 34 }, "geometry": { "type": "Point", "coordinates": [ 6.933765993111325, 50.964566033146859 ] } },
{ "type": "Feature", "properties": { "NAME": "Gelderstr.\/Parkgürtel (Stadtbahn)", "KNOTENNUMMER": "17325", "TYP": "Ubahn", "NR_STADTTEIL": "507", "STADTTEIL": "Bilderstöckchen", "NR_STADTBEZIRK": "5", "STADTBEZIRK": "Nippes", "HYPERLINK": "http:\/\/www.kvb-koeln.de\/qr\/17325\/", "OBJECTID": 35 }, "geometry": { "type": "Point", "coordinates": [ 6.94037710802981, 50.968387332200187 ] } },
{ "type": "Feature", "properties": { "NAME": "Rektor-Klein-Str.", "KNOTENNUMMER": "272", "TYP": "Stadtbahn", "NR_STADTTEIL": "406", "STADTTEIL": "Ossendorf", "NR_STADTBEZIRK": "4", "STADTBEZIRK": "Ehrenfeld", "HYPERLINK": "http:\/\/www.kvb-koeln.de\/qr\/272\/", "OBJECTID": 36 }, "geometry": { "type": "Point", "coordinates": [ 6.904643101141804, 50.974198131274782 ] } },
{ "type": "Feature", "properties": { "NAME": "Margaretastr.", "KNOTENNUMMER": "273", "TYP": "Stadtbahn", "NR_STADTTEIL": "406", "STADTTEIL": "Ossendorf", "NR_STADTBEZIRK": "4", "STADTBEZIRK": "Ehrenfeld", "HYPERLINK": "http:\/\/www.kvb-koeln.de\/qr\/273\/", "OBJECTID": 37 }, "geometry": { "type": "Point", "coordinates": [ 6.905495548809759, 50.96824963280406 ] } },
{ "type": "Feature", "properties": { "NAME": "Alter Flughafen Butzweilerhof", "KNOTENNUMMER": "274", "TYP": "Stadtbahn", "NR_STADTTEIL": "406", "STADTTEIL": "Ossendorf", "NR_STADTBEZIRK": "4", "STADTBEZIRK": "Ehrenfeld", "HYPERLINK": "http:\/\/www.kvb-koeln.de\/qr\/274\/", "OBJECTID": 38 }, "geometry": { "type": "Point", "coordinates": [ 6.898266915722128, 50.977555180438941 ] } },
{ "type": "Feature", "properties": { "NAME": "Sparkasse Am Butzweilerhof", "KNOTENNUMMER": "903", "TYP": "Stadtbahn", "NR_STADTTEIL": "406", "STADTTEIL": "Ossendorf", "NR_STADTBEZIRK": "4", "STADTBEZIRK": "Ehrenfeld", "HYPERLINK": "http:\/\/www.kvb-koeln.de\/qr\/903\/", "OBJECTID": 39 }, "geometry": { "type": "Point", "coordinates": [ 6.887896487656606, 50.98508260508234 ] } },
{ "type": "Feature", "properties": { "NAME": "IKEA Am Butzweilerhof", "KNOTENNUMMER": "976", "TYP": "Stadtbahn", "NR_STADTTEIL": "406", "STADTTEIL": "Ossendorf", "NR_STADTBEZIRK": "4", "STADTBEZIRK": "Ehrenfeld", "HYPERLINK": "http:\/\/www.kvb-koeln.de\/qr\/976\/", "OBJECTID": 40 }, "geometry": { "type": "Point", "coordinates": [ 6.893763571932722, 50.982352862464651 ] } },
{ "type": "Feature", "properties": { "NAME": "Porz Steinstr.", "KNOTENNUMMER": "466", "TYP": "Stadtbahn", "NR_STADTTEIL": "706", "STADTTEIL": "Porz", "NR_STADTBEZIRK": "7", "STADTBEZIRK": "Porz", "HYPERLINK": "http:\/\/www.kvb-koeln.de\/qr\/466\/", "OBJECTID": 41 }, "geometry": { "type": "Point", "coordinates": [ 7.056260822574255, 50.891804349778091 ] } },
{ "type": "Feature", "properties": { "NAME": "Porz Markt", "KNOTENNUMMER": "467", "TYP": "Stadtbahn", "NR_STADTTEIL": "706", "STADTTEIL": "Porz", "NR_STADTBEZIRK": "7", "STADTBEZIRK": "Porz", "HYPERLINK": "http:\/\/www.kvb-koeln.de\/qr\/467\/", "OBJECTID": 42 }, "geometry": { "type": "Point", "coordinates": [ 7.059162207255236, 50.884999987899448 ] } },
{ "type": "Feature", "properties": { "NAME": "Poll Salmstr.", "KNOTENNUMMER": "438", "TYP": "Stadtbahn", "NR_STADTTEIL": "701", "STADTTEIL": "Poll", "NR_STADTBEZIRK": "7", "STADTBEZIRK": "Porz", "HYPERLINK": "http:\/\/www.kvb-koeln.de\/qr\/438\/", "OBJECTID": 43 }, "geometry": { "type": "Point", "coordinates": [ 6.992802633981503, 50.915985847414049 ] } },
{ "type": "Feature", "properties": { "NAME": "Baumschulenweg", "KNOTENNUMMER": "439", "TYP": "Stadtbahn", "NR_STADTTEIL": "701", "STADTTEIL": "Poll", "NR_STADTBEZIRK": "7", "STADTBEZIRK": "Porz", "HYPERLINK": "http:\/\/www.kvb-koeln.de\/qr\/439\/", "OBJECTID": 44 }, "geometry": { "type": "Point", "coordinates": [ 6.999974453635796, 50.91488183386376 ] } },
{ "type": "Feature", "properties": { "NAME": "Raiffeisenstr.", "KNOTENNUMMER": "444", "TYP": "Stadtbahn", "NR_STADTTEIL": "701", "STADTTEIL": "Poll", "NR_STADTBEZIRK": "7", "STADTBEZIRK": "Porz", "HYPERLINK": "http:\/\/www.kvb-koeln.de\/qr\/444\/", "OBJECTID": 45 }, "geometry": { "type": "Point", "coordinates": [ 6.985947965444023, 50.919999294552518 ] } },
{ "type": "Feature", "properties": { "NAME": "Rathaus", "KNOTENNUMMER": "6", "TYP": "Stadtbahn", "NR_STADTTEIL": "103", "STADTTEIL": "Altstadt\/Nord", "NR_STADTBEZIRK": "1", "STADTBEZIRK": "Innenstadt", "HYPERLINK": "http:\/\/www.kvb-koeln.de\/qr\/6\/", "OBJECTID": 46 }, "geometry": { "type": "Point", "coordinates": [ 6.959891078588804, 50.939193052882864 ] } },
{ "type": "Feature", "properties": { "NAME": "Weißhausstr.", "KNOTENNUMMER": "150", "TYP": "Stadtbahn", "NR_STADTTEIL": "302", "STADTTEIL": "Sülz", "NR_STADTBEZIRK": "3", "STADTBEZIRK": "Lindenthal", "HYPERLINK": "http:\/\/www.kvb-koeln.de\/qr\/150\/", "OBJECTID": 47 }, "geometry": { "type": "Point", "coordinates": [ 6.933514960983758, 50.921509293313953 ] } },
{ "type": "Feature", "properties": { "NAME": "Arnulfstr.", "KNOTENNUMMER": "151", "TYP": "Stadtbahn", "NR_STADTTEIL": "302", "STADTTEIL": "Sülz", "NR_STADTBEZIRK": "3", "STADTBEZIRK": "Lindenthal", "HYPERLINK": "http:\/\/www.kvb-koeln.de\/qr\/151\/", "OBJECTID": 48 }, "geometry": { "type": "Point", "coordinates": [ 6.930657885838202, 50.91873643441469 ] } },
{ "type": "Feature", "properties": { "NAME": "Sülzburgstr.", "KNOTENNUMMER": "152", "TYP": "Stadtbahn", "NR_STADTTEIL": "302", "STADTTEIL": "Sülz", "NR_STADTBEZIRK": "3", "STADTBEZIRK": "Lindenthal", "HYPERLINK": "http:\/\/www.kvb-koeln.de\/qr\/152\/", "OBJECTID": 49 }, "geometry": { "type": "Point", "coordinates": [ 6.927497925480879, 50.915732190352358 ] } },
{ "type": "Feature", "properties": { "NAME": "Universität", "KNOTENNUMMER": "153", "TYP": "Stadtbahn", "NR_STADTTEIL": "302", "STADTTEIL": "Sülz", "NR_STADTBEZIRK": "3", "STADTBEZIRK": "Lindenthal", "HYPERLINK": "http:\/\/www.kvb-koeln.de\/qr\/153\/", "OBJECTID": 50 }, "geometry": { "type": "Point", "coordinates": [ 6.930927081281296, 50.92580888969384 ] } },
{ "type": "Feature", "properties": { "NAME": "Weyertal", "KNOTENNUMMER": "154", "TYP": "Stadtbahn", "NR_STADTTEIL": "302", "STADTTEIL": "Sülz", "NR_STADTBEZIRK": "3", "STADTBEZIRK": "Lindenthal", "HYPERLINK": "http:\/\/www.kvb-koeln.de\/qr\/154\/", "OBJECTID": 51 }, "geometry": { "type": "Point", "coordinates": [ 6.926980375179954, 50.924033456178989 ] } },
{ "type": "Feature", "properties": { "NAME": "Lindenburg (Universitätskliniken)", "KNOTENNUMMER": "155", "TYP": "Stadtbahn", "NR_STADTTEIL": "302", "STADTTEIL": "Sülz", "NR_STADTBEZIRK": "3", "STADTBEZIRK": "Lindenthal", "HYPERLINK": "http:\/\/www.kvb-koeln.de\/qr\/155\/", "OBJECTID": 52 }, "geometry": { "type": "Point", "coordinates": [ 6.921668320547195, 50.922241714665937 ] } },
{ "type": "Feature", "properties": { "NAME": "Berrenrather Str.\/Gürtel", "KNOTENNUMMER": "162", "TYP": "Stadtbahn", "NR_STADTTEIL": "302", "STADTTEIL": "Sülz", "NR_STADTBEZIRK": "3", "STADTBEZIRK": "Lindenthal", "HYPERLINK": "http:\/\/www.kvb-koeln.de\/qr\/162\/", "OBJECTID": 53 }, "geometry": { "type": "Point", "coordinates": [ 6.920337973099062, 50.914647243751723 ] } },
{ "type": "Feature", "properties": { "NAME": "Euskirchener Str.", "KNOTENNUMMER": "163", "TYP": "Stadtbahn", "NR_STADTTEIL": "302", "STADTTEIL": "Sülz", "NR_STADTBEZIRK": "3", "STADTBEZIRK": "Lindenthal", "HYPERLINK": "http:\/\/www.kvb-koeln.de\/qr\/163\/", "OBJECTID": 54 }, "geometry": { "type": "Point", "coordinates": [ 6.916607925957847, 50.918038617073385 ] } },
{ "type": "Feature", "properties": { "NAME": "Zülpicher Str.\/Gürtel", "KNOTENNUMMER": "164", "TYP": "Stadtbahn", "NR_STADTTEIL": "302", "STADTTEIL": "Sülz", "NR_STADTBEZIRK": "3", "STADTBEZIRK": "Lindenthal", "HYPERLINK": "http:\/\/www.kvb-koeln.de\/qr\/164\/", "OBJECTID": 55 }, "geometry": { "type": "Point", "coordinates": [ 6.915259302717397, 50.920332492370683 ] } },
{ "type": "Feature", "properties": { "NAME": "Mommsenstr.", "KNOTENNUMMER": "165", "TYP": "Stadtbahn", "NR_STADTTEIL": "302", "STADTTEIL": "Sülz", "NR_STADTBEZIRK": "3", "STADTBEZIRK": "Lindenthal", "HYPERLINK": "http:\/\/www.kvb-koeln.de\/qr\/165\/", "OBJECTID": 56 }, "geometry": { "type": "Point", "coordinates": [ 6.910330262699564, 50.919175473564501 ] } },
{ "type": "Feature", "properties": { "NAME": "Sülz Hermeskeiler Platz", "KNOTENNUMMER": "166", "TYP": "Stadtbahn", "NR_STADTTEIL": "302", "STADTTEIL": "Sülz", "NR_STADTBEZIRK": "3", "STADTBEZIRK": "Lindenthal", "HYPERLINK": "http:\/\/www.kvb-koeln.de\/qr\/166\/", "OBJECTID": 57 }, "geometry": { "type": "Point", "coordinates": [ 6.907290511996848, 50.917167563287329 ] } },
{ "type": "Feature", "properties": { "NAME": "Rudolfplatz", "KNOTENNUMMER": "27", "TYP": "Ubahn", "NR_STADTTEIL": "102", "STADTTEIL": "Neustadt\/Süd", "NR_STADTBEZIRK": "1", "STADTBEZIRK": "Innenstadt", "HYPERLINK": "http:\/\/www.kvb-koeln.de\/qr\/27\/", "OBJECTID": 58 }, "geometry": { "type": "Point", "coordinates": [ 6.939020159255938, 50.935695220146563 ] } },
{ "type": "Feature", "properties": { "NAME": "Ubierring", "KNOTENNUMMER": "17", "TYP": "Stadtbahn", "NR_STADTTEIL": "102", "STADTTEIL": "Neustadt\/Süd", "NR_STADTBEZIRK": "1", "STADTBEZIRK": "Innenstadt", "HYPERLINK": "http:\/\/www.kvb-koeln.de\/qr\/17\/", "OBJECTID": 59 }, "geometry": { "type": "Point", "coordinates": [ 6.965476167572619, 50.922408834220057 ] } },
{ "type": "Feature", "properties": { "NAME": "Chlodwigplatz", "KNOTENNUMMER": "18", "TYP": "Stadtbahn", "NR_STADTTEIL": "102", "STADTTEIL": "Neustadt\/Süd", "NR_STADTBEZIRK": "1", "STADTBEZIRK": "Innenstadt", "HYPERLINK": "http:\/\/www.kvb-koeln.de\/qr\/18\/", "OBJECTID": 60 }, "geometry": { "type": "Point", "coordinates": [ 6.960359911647267, 50.9212105259693 ] } },
{ "type": "Feature", "properties": { "NAME": "Ulrepforte", "KNOTENNUMMER": "19", "TYP": "Stadtbahn", "NR_STADTTEIL": "102", "STADTTEIL": "Neustadt\/Süd", "NR_STADTBEZIRK": "1", "STADTBEZIRK": "Innenstadt", "HYPERLINK": "http:\/\/www.kvb-koeln.de\/qr\/19\/", "OBJECTID": 61 }, "geometry": { "type": "Point", "coordinates": [ 6.952068112626644, 50.923975280896471 ] } },
{ "type": "Feature", "properties": { "NAME": "Eifelplatz", "KNOTENNUMMER": "21", "TYP": "Stadtbahn", "NR_STADTTEIL": "102", "STADTTEIL": "Neustadt\/Süd", "NR_STADTBEZIRK": "1", "STADTBEZIRK": "Innenstadt", "HYPERLINK": "http:\/\/www.kvb-koeln.de\/qr\/21\/", "OBJECTID": 62 }, "geometry": { "type": "Point", "coordinates": [ 6.943477751529625, 50.923280963537657 ] } },
{ "type": "Feature", "properties": { "NAME": "Eifelstr.", "KNOTENNUMMER": "22", "TYP": "Stadtbahn", "NR_STADTTEIL": "102", "STADTTEIL": "Neustadt\/Süd", "NR_STADTBEZIRK": "1", "STADTBEZIRK": "Innenstadt", "HYPERLINK": "http:\/\/www.kvb-koeln.de\/qr\/22\/", "OBJECTID": 63 }, "geometry": { "type": "Point", "coordinates": [ 6.945693733075202, 50.926652003075986 ] } },
{ "type": "Feature", "properties": { "NAME": "Barbarossaplatz", "KNOTENNUMMER": "23", "TYP": "Stadtbahn", "NR_STADTTEIL": "102", "STADTTEIL": "Neustadt\/Süd", "NR_STADTBEZIRK": "1", "STADTBEZIRK": "Innenstadt", "HYPERLINK": "http:\/\/www.kvb-koeln.de\/qr\/23\/", "OBJECTID": 64 }, "geometry": { "type": "Point", "coordinates": [ 6.942703328699121, 50.928590927468527 ] } },
{ "type": "Feature", "properties": { "NAME": "Zülpicher Platz", "KNOTENNUMMER": "24", "TYP": "Stadtbahn", "NR_STADTTEIL": "102", "STADTTEIL": "Neustadt\/Süd", "NR_STADTBEZIRK": "1", "STADTBEZIRK": "Innenstadt", "HYPERLINK": "http:\/\/www.kvb-koeln.de\/qr\/24\/", "OBJECTID": 65 }, "geometry": { "type": "Point", "coordinates": [ 6.940734983384046, 50.931141802990439 ] } },
{ "type": "Feature", "properties": { "NAME": "Eifelwall", "KNOTENNUMMER": "26", "TYP": "Stadtbahn", "NR_STADTTEIL": "102", "STADTTEIL": "Neustadt\/Süd", "NR_STADTBEZIRK": "1", "STADTBEZIRK": "Innenstadt", "HYPERLINK": "http:\/\/www.kvb-koeln.de\/qr\/26\/", "OBJECTID": 66 }, "geometry": { "type": "Point", "coordinates": [ 6.937022598275377, 50.924789252133365 ] } },
{ "type": "Feature", "properties": { "NAME": "Moltkestr.", "KNOTENNUMMER": "28", "TYP": "Stadtbahn", "NR_STADTTEIL": "102", "STADTTEIL": "Neustadt\/Süd", "NR_STADTBEZIRK": "1", "STADTBEZIRK": "Innenstadt", "HYPERLINK": "http:\/\/www.kvb-koeln.de\/qr\/28\/", "OBJECTID": 67 }, "geometry": { "type": "Point", "coordinates": [ 6.931918059462002, 50.935536410205628 ] } },
{ "type": "Feature", "properties": { "NAME": "Moltkestr. (Stadtbahn)", "KNOTENNUMMER": "17162", "TYP": "Stadtbahn", "NR_STADTTEIL": "102", "STADTTEIL": "Neustadt\/Süd", "NR_STADTBEZIRK": "1", "STADTBEZIRK": "Innenstadt", "HYPERLINK": "http:\/\/www.kvb-koeln.de\/qr\/17162\/", "OBJECTID": 68 }, "geometry": { "type": "Point", "coordinates": [ 6.933131950612637, 50.936479576239023 ] } },
{ "type": "Feature", "properties": { "NAME": "Dasselstr.\/Bf Süd (Stadtbahn)", "KNOTENNUMMER": "17202", "TYP": "Stadtbahn", "NR_STADTTEIL": "102", "STADTTEIL": "Neustadt\/Süd", "NR_STADTBEZIRK": "1", "STADTBEZIRK": "Innenstadt", "HYPERLINK": "http:\/\/www.kvb-koeln.de\/qr\/17202\/", "OBJECTID": 69 }, "geometry": { "type": "Point", "coordinates": [ 6.935726688415571, 50.928251552462214 ] } },
{ "type": "Feature", "properties": { "NAME": "Universitätsstr.", "KNOTENNUMMER": "143", "TYP": "Stadtbahn", "NR_STADTTEIL": "303", "STADTTEIL": "Lindenthal", "NR_STADTBEZIRK": "3", "STADTBEZIRK": "Lindenthal", "HYPERLINK": "http:\/\/www.kvb-koeln.de\/qr\/143\/", "OBJECTID": 70 }, "geometry": { "type": "Point", "coordinates": [ 6.92464219051746, 50.936655026956345 ] } },
{ "type": "Feature", "properties": { "NAME": "Melaten", "KNOTENNUMMER": "144", "TYP": "Stadtbahn", "NR_STADTTEIL": "303", "STADTTEIL": "Lindenthal", "NR_STADTBEZIRK": "3", "STADTBEZIRK": "Lindenthal", "HYPERLINK": "http:\/\/www.kvb-koeln.de\/qr\/144\/", "OBJECTID": 71 }, "geometry": { "type": "Point", "coordinates": [ 6.916719920978017, 50.936753488641465 ] } },
{ "type": "Feature", "properties": { "NAME": "Wüllnerstr.", "KNOTENNUMMER": "169", "TYP": "Stadtbahn", "NR_STADTTEIL": "303", "STADTTEIL": "Lindenthal", "NR_STADTBEZIRK": "3", "STADTBEZIRK": "Lindenthal", "HYPERLINK": "http:\/\/www.kvb-koeln.de\/qr\/169\/", "OBJECTID": 72 }, "geometry": { "type": "Point", "coordinates": [ 6.907962012304361, 50.931203648015895 ] } },
{ "type": "Feature", "properties": { "NAME": "Dürener Str.\/Gürtel", "KNOTENNUMMER": "170", "TYP": "Stadtbahn", "NR_STADTTEIL": "303", "STADTTEIL": "Lindenthal", "NR_STADTBEZIRK": "3", "STADTBEZIRK": "Lindenthal", "HYPERLINK": "http:\/\/www.kvb-koeln.de\/qr\/170\/", "OBJECTID": 73 }, "geometry": { "type": "Point", "coordinates": [ 6.908819719819699, 50.92777204477656 ] } },
{ "type": "Feature", "properties": { "NAME": "Brahmsstr.", "KNOTENNUMMER": "172", "TYP": "Stadtbahn", "NR_STADTTEIL": "303", "STADTTEIL": "Lindenthal", "NR_STADTBEZIRK": "3", "STADTBEZIRK": "Lindenthal", "HYPERLINK": "http:\/\/www.kvb-koeln.de\/qr\/172\/", "OBJECTID": 74 }, "geometry": { "type": "Point", "coordinates": [ 6.898231168678789, 50.925984260524025 ] } },
{ "type": "Feature", "properties": { "NAME": "Gleueler Str.\/Gürtel", "KNOTENNUMMER": "173", "TYP": "Stadtbahn", "NR_STADTTEIL": "303", "STADTTEIL": "Lindenthal", "NR_STADTBEZIRK": "3", "STADTBEZIRK": "Lindenthal", "HYPERLINK": "http:\/\/www.kvb-koeln.de\/qr\/173\/", "OBJECTID": 75 }, "geometry": { "type": "Point", "coordinates": [ 6.912255085198338, 50.923789939210302 ] } },
{ "type": "Feature", "properties": { "NAME": "Stüttgenhof", "KNOTENNUMMER": "234", "TYP": "Stadtbahn", "NR_STADTTEIL": "303", "STADTTEIL": "Lindenthal", "NR_STADTBEZIRK": "3", "STADTBEZIRK": "Lindenthal", "HYPERLINK": "http:\/\/www.kvb-koeln.de\/qr\/234\/", "OBJECTID": 76 }, "geometry": { "type": "Point", "coordinates": [ 6.876598792673936, 50.920000103070713 ] } },
{ "type": "Feature", "properties": { "NAME": "Flehbachstr.", "KNOTENNUMMER": "546", "TYP": "Stadtbahn", "NR_STADTTEIL": "807", "STADTTEIL": "Brück", "NR_STADTBEZIRK": "8", "STADTBEZIRK": "Kalk", "HYPERLINK": "http:\/\/www.kvb-koeln.de\/qr\/546\/", "OBJECTID": 77 }, "geometry": { "type": "Point", "coordinates": [ 7.072624745330337, 50.947650093395396 ] } },
{ "type": "Feature", "properties": { "NAME": "Brück Mauspfad", "KNOTENNUMMER": "547", "TYP": "Stadtbahn", "NR_STADTTEIL": "807", "STADTTEIL": "Brück", "NR_STADTBEZIRK": "8", "STADTBEZIRK": "Kalk", "HYPERLINK": "http:\/\/www.kvb-koeln.de\/qr\/547\/", "OBJECTID": 78 }, "geometry": { "type": "Point", "coordinates": [ 7.079230738805244, 50.94901849584889 ] } },
{ "type": "Feature", "properties": { "NAME": "Alter Militärring", "KNOTENNUMMER": "186", "TYP": "Stadtbahn", "NR_STADTTEIL": "305", "STADTTEIL": "Müngersdorf", "NR_STADTBEZIRK": "3", "STADTBEZIRK": "Lindenthal", "HYPERLINK": "http:\/\/www.kvb-koeln.de\/qr\/186\/", "OBJECTID": 79 }, "geometry": { "type": "Point", "coordinates": [ 6.881740526089423, 50.937706221790762 ] } },
{ "type": "Feature", "properties": { "NAME": "Rheinenergie-Stadion", "KNOTENNUMMER": "187", "TYP": "Stadtbahn", "NR_STADTTEIL": "305", "STADTTEIL": "Müngersdorf", "NR_STADTBEZIRK": "3", "STADTBEZIRK": "Lindenthal", "HYPERLINK": "http:\/\/www.kvb-koeln.de\/qr\/187\/", "OBJECTID": 80 }, "geometry": { "type": "Point", "coordinates": [ 6.874582554042885, 50.937607270962154 ] } },
{ "type": "Feature", "properties": { "NAME": "Junkersdorf", "KNOTENNUMMER": "200", "TYP": "Stadtbahn", "NR_STADTTEIL": "305", "STADTTEIL": "Müngersdorf", "NR_STADTBEZIRK": "3", "STADTBEZIRK": "Lindenthal", "HYPERLINK": "http:\/\/www.kvb-koeln.de\/qr\/200\/", "OBJECTID": 81 }, "geometry": { "type": "Point", "coordinates": [ 6.868352068241535, 50.937653800777539 ] } },
{ "type": "Feature", "properties": { "NAME": "Steinweg", "KNOTENNUMMER": "553", "TYP": "Stadtbahn", "NR_STADTTEIL": "808", "STADTTEIL": "Rath\/Heumar", "NR_STADTBEZIRK": "8", "STADTBEZIRK": "Kalk", "HYPERLINK": "http:\/\/www.kvb-koeln.de\/qr\/553\/", "OBJECTID": 82 }, "geometry": { "type": "Point", "coordinates": [ 7.06678157912657, 50.923648054570556 ] } },
{ "type": "Feature", "properties": { "NAME": "Porzer Str.", "KNOTENNUMMER": "554", "TYP": "Stadtbahn", "NR_STADTTEIL": "808", "STADTTEIL": "Rath\/Heumar", "NR_STADTBEZIRK": "8", "STADTBEZIRK": "Kalk", "HYPERLINK": "http:\/\/www.kvb-koeln.de\/qr\/554\/", "OBJECTID": 83 }, "geometry": { "type": "Point", "coordinates": [ 7.075069364250534, 50.921621280364135 ] } },
{ "type": "Feature", "properties": { "NAME": "Röttgensweg", "KNOTENNUMMER": "555", "TYP": "Stadtbahn", "NR_STADTTEIL": "808", "STADTTEIL": "Rath\/Heumar", "NR_STADTBEZIRK": "8", "STADTBEZIRK": "Kalk", "HYPERLINK": "http:\/\/www.kvb-koeln.de\/qr\/555\/", "OBJECTID": 84 }, "geometry": { "type": "Point", "coordinates": [ 7.09055395728232, 50.920263998641495 ] } },
{ "type": "Feature", "properties": { "NAME": "Rath-Heumar", "KNOTENNUMMER": "556", "TYP": "Stadtbahn", "NR_STADTTEIL": "808", "STADTTEIL": "Rath\/Heumar", "NR_STADTBEZIRK": "8", "STADTBEZIRK": "Kalk", "HYPERLINK": "http:\/\/www.kvb-koeln.de\/qr\/556\/", "OBJECTID": 85 }, "geometry": { "type": "Point", "coordinates": [ 7.081936833246348, 50.920317258073979 ] } },
{ "type": "Feature", "properties": { "NAME": "Königsforst", "KNOTENNUMMER": "557", "TYP": "Stadtbahn", "NR_STADTTEIL": "808", "STADTTEIL": "Rath\/Heumar", "NR_STADTBEZIRK": "8", "STADTBEZIRK": "Kalk", "HYPERLINK": "http:\/\/www.kvb-koeln.de\/qr\/557\/", "OBJECTID": 86 }, "geometry": { "type": "Point", "coordinates": [ 7.096898882216823, 50.91974605777785 ] } },
{ "type": "Feature", "properties": { "NAME": "Holweide Vischeringstr.", "KNOTENNUMMER": "583", "TYP": "Stadtbahn", "NR_STADTTEIL": "904", "STADTTEIL": "Holweide", "NR_STADTBEZIRK": "9", "STADTBEZIRK": "Mülheim", "HYPERLINK": "http:\/\/www.kvb-koeln.de\/qr\/583\/", "OBJECTID": 87 }, "geometry": { "type": "Point", "coordinates": [ 7.039490102442389, 50.96709725175667 ] } },
{ "type": "Feature", "properties": { "NAME": "Maria-Himmelfahrt-Str.", "KNOTENNUMMER": "584", "TYP": "Stadtbahn", "NR_STADTTEIL": "904", "STADTTEIL": "Holweide", "NR_STADTBEZIRK": "9", "STADTBEZIRK": "Mülheim", "HYPERLINK": "http:\/\/www.kvb-koeln.de\/qr\/584\/", "OBJECTID": 88 }, "geometry": { "type": "Point", "coordinates": [ 7.045259456391527, 50.967899708658216 ] } },
{ "type": "Feature", "properties": { "NAME": "Neufelder Str.", "KNOTENNUMMER": "585", "TYP": "Stadtbahn", "NR_STADTTEIL": "904", "STADTTEIL": "Holweide", "NR_STADTBEZIRK": "9", "STADTBEZIRK": "Mülheim", "HYPERLINK": "http:\/\/www.kvb-koeln.de\/qr\/585\/", "OBJECTID": 89 }, "geometry": { "type": "Point", "coordinates": [ 7.055532754479382, 50.969551178846984 ] } },
{ "type": "Feature", "properties": { "NAME": "Bayenthalgürtel", "KNOTENNUMMER": "76", "TYP": "Stadtbahn", "NR_STADTTEIL": "202", "STADTTEIL": "Marienburg", "NR_STADTBEZIRK": "2", "STADTBEZIRK": "Rodenkirchen", "HYPERLINK": "http:\/\/www.kvb-koeln.de\/qr\/76\/", "OBJECTID": 90 }, "geometry": { "type": "Point", "coordinates": [ 6.977767034889864, 50.906943656148719 ] } },
{ "type": "Feature", "properties": { "NAME": "Heinrich-Lübke-Ufer", "KNOTENNUMMER": "897", "TYP": "Stadtbahn", "NR_STADTTEIL": "202", "STADTTEIL": "Marienburg", "NR_STADTBEZIRK": "2", "STADTBEZIRK": "Rodenkirchen", "HYPERLINK": "http:\/\/www.kvb-koeln.de\/qr\/897\/", "OBJECTID": 91 }, "geometry": { "type": "Point", "coordinates": [ 6.984755767189212, 50.899909109418545 ] } },
{ "type": "Feature", "properties": { "NAME": "Sürth Bf", "KNOTENNUMMER": "124", "TYP": "Stadtbahn", "NR_STADTTEIL": "210", "STADTTEIL": "Sürth", "NR_STADTBEZIRK": "2", "STADTBEZIRK": "Rodenkirchen", "HYPERLINK": "http:\/\/www.kvb-koeln.de\/qr\/124\/", "OBJECTID": 92 }, "geometry": { "type": "Point", "coordinates": [ 7.003446867693516, 50.864106690705881 ] } },
{ "type": "Feature", "properties": { "NAME": "Höhenberg Frankfurter Str.", "KNOTENNUMMER": "518", "TYP": "Ubahn", "NR_STADTTEIL": "804", "STADTTEIL": "Höhenberg", "NR_STADTBEZIRK": "8", "STADTBEZIRK": "Kalk", "HYPERLINK": "http:\/\/www.kvb-koeln.de\/qr\/518\/", "OBJECTID": 93 }, "geometry": { "type": "Point", "coordinates": [ 7.029206973416528, 50.941766538137543 ] } },
{ "type": "Feature", "properties": { "NAME": "Fuldaer Str.", "KNOTENNUMMER": "517", "TYP": "Ubahn", "NR_STADTTEIL": "804", "STADTTEIL": "Höhenberg", "NR_STADTBEZIRK": "8", "STADTBEZIRK": "Kalk", "HYPERLINK": "http:\/\/www.kvb-koeln.de\/qr\/517\/", "OBJECTID": 94 }, "geometry": { "type": "Point", "coordinates": [ 7.022586800344591, 50.941582029569886 ] } },
{ "type": "Feature", "properties": { "NAME": "Dellbrück Mauspfad", "KNOTENNUMMER": "594", "TYP": "Stadtbahn", "NR_STADTTEIL": "905", "STADTTEIL": "Dellbrück", "NR_STADTBEZIRK": "9", "STADTBEZIRK": "Mülheim", "HYPERLINK": "http:\/\/www.kvb-koeln.de\/qr\/594\/", "OBJECTID": 95 }, "geometry": { "type": "Point", "coordinates": [ 7.064954311992418, 50.971901699980592 ] } },
{ "type": "Feature", "properties": { "NAME": "Dellbrück Hauptstr.", "KNOTENNUMMER": "595", "TYP": "Stadtbahn", "NR_STADTTEIL": "905", "STADTTEIL": "Dellbrück", "NR_STADTBEZIRK": "9", "STADTBEZIRK": "Mülheim", "HYPERLINK": "http:\/\/www.kvb-koeln.de\/qr\/595\/", "OBJECTID": 96 }, "geometry": { "type": "Point", "coordinates": [ 7.0748311795121, 50.974813598831261 ] } },
{ "type": "Feature", "properties": { "NAME": "Thielenbruch", "KNOTENNUMMER": "596", "TYP": "Stadtbahn", "NR_STADTTEIL": "905", "STADTTEIL": "Dellbrück", "NR_STADTBEZIRK": "9", "STADTBEZIRK": "Mülheim", "HYPERLINK": "http:\/\/www.kvb-koeln.de\/qr\/596\/", "OBJECTID": 97 }, "geometry": { "type": "Point", "coordinates": [ 7.085457730361807, 50.978068279129495 ] } },
{ "type": "Feature", "properties": { "NAME": "Rodenkirchen Bf", "KNOTENNUMMER": "106", "TYP": "Stadtbahn", "NR_STADTTEIL": "208", "STADTTEIL": "Rodenkirchen", "NR_STADTBEZIRK": "2", "STADTBEZIRK": "Rodenkirchen", "HYPERLINK": "http:\/\/www.kvb-koeln.de\/qr\/106\/", "OBJECTID": 98 }, "geometry": { "type": "Point", "coordinates": [ 6.990051987204008, 50.890910824648131 ] } },
{ "type": "Feature", "properties": { "NAME": "Siegstr. (Stadtbahn)", "KNOTENNUMMER": "107", "TYP": "Stadtbahn", "NR_STADTTEIL": "208", "STADTTEIL": "Rodenkirchen", "NR_STADTBEZIRK": "2", "STADTBEZIRK": "Rodenkirchen", "HYPERLINK": "http:\/\/www.kvb-koeln.de\/qr\/107\/", "OBJECTID": 99 }, "geometry": { "type": "Point", "coordinates": [ 6.994637082347618, 50.883311708501751 ] } },
{ "type": "Feature", "properties": { "NAME": "Michaelshoven", "KNOTENNUMMER": "108", "TYP": "Stadtbahn", "NR_STADTTEIL": "208", "STADTTEIL": "Rodenkirchen", "NR_STADTBEZIRK": "2", "STADTBEZIRK": "Rodenkirchen", "HYPERLINK": "http:\/\/www.kvb-koeln.de\/qr\/108\/", "OBJECTID": 100 }, "geometry": { "type": "Point", "coordinates": [ 6.998891307070648, 50.876254599376715 ] } },
{ "type": "Feature", "properties": { "NAME": "Heimersdorf", "KNOTENNUMMER": "384", "TYP": "Ubahn", "NR_STADTTEIL": "604", "STADTTEIL": "Heimersdorf", "NR_STADTBEZIRK": "6", "STADTBEZIRK": "Chorweiler", "HYPERLINK": "http:\/\/www.kvb-koeln.de\/qr\/384\/", "OBJECTID": 101 }, "geometry": { "type": "Point", "coordinates": [ 6.906862414989221, 51.012088394671508 ] } },
{ "type": "Feature", "properties": { "NAME": "Chorweiler S-Bahn (Bus)", "KNOTENNUMMER": "17320", "TYP": "Ubahn", "NR_STADTTEIL": "609", "STADTTEIL": "Chorweiler", "NR_STADTBEZIRK": "6", "STADTBEZIRK": "Chorweiler", "HYPERLINK": "http:\/\/www.kvb-koeln.de\/qr\/17320\/", "OBJECTID": 102 }, "geometry": { "type": "Point", "coordinates": [ 6.898206836989224, 51.021360200442409 ] } },
{ "type": "Feature", "properties": { "NAME": "Westhoven Kölner Str.", "KNOTENNUMMER": "449", "TYP": "Stadtbahn", "NR_STADTTEIL": "702", "STADTTEIL": "Westhoven", "NR_STADTBEZIRK": "7", "STADTBEZIRK": "Porz", "HYPERLINK": "http:\/\/www.kvb-koeln.de\/qr\/449\/", "OBJECTID": 103 }, "geometry": { "type": "Point", "coordinates": [ 7.014729004541848, 50.9067718492186 ] } },
{ "type": "Feature", "properties": { "NAME": "Westhoven Berliner Str.", "KNOTENNUMMER": "450", "TYP": "Stadtbahn", "NR_STADTTEIL": "702", "STADTTEIL": "Westhoven", "NR_STADTBEZIRK": "7", "STADTBEZIRK": "Porz", "HYPERLINK": "http:\/\/www.kvb-koeln.de\/qr\/450\/", "OBJECTID": 104 }, "geometry": { "type": "Point", "coordinates": [ 7.025458341557712, 50.901374275299013 ] } },
{ "type": "Feature", "properties": { "NAME": "Meerfeldstr.", "KNOTENNUMMER": "355", "TYP": "Stadtbahn", "NR_STADTTEIL": "506", "STADTTEIL": "Longerich", "NR_STADTBEZIRK": "5", "STADTBEZIRK": "Nippes", "HYPERLINK": "http:\/\/www.kvb-koeln.de\/qr\/355\/", "OBJECTID": 105 }, "geometry": { "type": "Point", "coordinates": [ 6.920774954273724, 50.995070838445429 ] } },
{ "type": "Feature", "properties": { "NAME": "Longericher Str.", "KNOTENNUMMER": "356", "TYP": "Stadtbahn", "NR_STADTTEIL": "506", "STADTTEIL": "Longerich", "NR_STADTBEZIRK": "5", "STADTBEZIRK": "Nippes", "HYPERLINK": "http:\/\/www.kvb-koeln.de\/qr\/356\/", "OBJECTID": 106 }, "geometry": { "type": "Point", "coordinates": [ 6.914584430208592, 50.996090331645554 ] } },
{ "type": "Feature", "properties": { "NAME": "Longerich Friedhof", "KNOTENNUMMER": "357", "TYP": "Stadtbahn", "NR_STADTTEIL": "506", "STADTTEIL": "Longerich", "NR_STADTBEZIRK": "5", "STADTBEZIRK": "Nippes", "HYPERLINK": "http:\/\/www.kvb-koeln.de\/qr\/357\/", "OBJECTID": 107 }, "geometry": { "type": "Point", "coordinates": [ 6.911283477965275, 50.99555881227905 ] } },
{ "type": "Feature", "properties": { "NAME": "Wilhelm-Sollmann-Str.", "KNOTENNUMMER": "362", "TYP": "Stadtbahn", "NR_STADTTEIL": "506", "STADTTEIL": "Longerich", "NR_STADTBEZIRK": "5", "STADTBEZIRK": "Nippes", "HYPERLINK": "http:\/\/www.kvb-koeln.de\/qr\/362\/", "OBJECTID": 108 }, "geometry": { "type": "Point", "coordinates": [ 6.941111145541702, 50.992014151016583 ] } },
{ "type": "Feature", "properties": { "NAME": "Altonaer Platz", "KNOTENNUMMER": "363", "TYP": "Stadtbahn", "NR_STADTTEIL": "506", "STADTTEIL": "Longerich", "NR_STADTBEZIRK": "5", "STADTBEZIRK": "Nippes", "HYPERLINK": "http:\/\/www.kvb-koeln.de\/qr\/363\/", "OBJECTID": 109 }, "geometry": { "type": "Point", "coordinates": [ 6.933357271639728, 50.993874241944155 ] } },
{ "type": "Feature", "properties": { "NAME": "Herforder Str.", "KNOTENNUMMER": "364", "TYP": "Stadtbahn", "NR_STADTTEIL": "506", "STADTTEIL": "Longerich", "NR_STADTBEZIRK": "5", "STADTBEZIRK": "Nippes", "HYPERLINK": "http:\/\/www.kvb-koeln.de\/qr\/364\/", "OBJECTID": 110 }, "geometry": { "type": "Point", "coordinates": [ 6.926136028813518, 50.994614930311698 ] } },
{ "type": "Feature", "properties": { "NAME": "Godorf Bf", "KNOTENNUMMER": "134", "TYP": "Stadtbahn", "NR_STADTTEIL": "211", "STADTTEIL": "Godorf", "NR_STADTBEZIRK": "2", "STADTBEZIRK": "Rodenkirchen", "HYPERLINK": "http:\/\/www.kvb-koeln.de\/qr\/134\/", "OBJECTID": 111 }, "geometry": { "type": "Point", "coordinates": [ 6.978525328110384, 50.847508128585247 ] } },
{ "type": "Feature", "properties": { "NAME": "Mülheim Wiener Platz", "KNOTENNUMMER": "570", "TYP": "Ubahn", "NR_STADTTEIL": "901", "STADTTEIL": "Mülheim", "NR_STADTBEZIRK": "9", "STADTBEZIRK": "Mülheim", "HYPERLINK": "http:\/\/www.kvb-koeln.de\/qr\/570\/", "OBJECTID": 112 }, "geometry": { "type": "Point", "coordinates": [ 7.004199099864913, 50.961814894200451 ] } },
{ "type": "Feature", "properties": { "NAME": "Stegerwaldsiedlung", "KNOTENNUMMER": "567", "TYP": "Stadtbahn", "NR_STADTTEIL": "901", "STADTTEIL": "Mülheim", "NR_STADTBEZIRK": "9", "STADTBEZIRK": "Mülheim", "HYPERLINK": "http:\/\/www.kvb-koeln.de\/qr\/567\/", "OBJECTID": 113 }, "geometry": { "type": "Point", "coordinates": [ 6.992849363662565, 50.948230255426253 ] } },
{ "type": "Feature", "properties": { "NAME": "Grünstr.", "KNOTENNUMMER": "568", "TYP": "Stadtbahn", "NR_STADTTEIL": "901", "STADTTEIL": "Mülheim", "NR_STADTBEZIRK": "9", "STADTBEZIRK": "Mülheim", "HYPERLINK": "http:\/\/www.kvb-koeln.de\/qr\/568\/", "OBJECTID": 114 }, "geometry": { "type": "Point", "coordinates": [ 7.000308698099505, 50.955645677138627 ] } },
{ "type": "Feature", "properties": { "NAME": "Keupstr.", "KNOTENNUMMER": "631", "TYP": "Stadtbahn", "NR_STADTTEIL": "901", "STADTTEIL": "Mülheim", "NR_STADTBEZIRK": "9", "STADTBEZIRK": "Mülheim", "HYPERLINK": "http:\/\/www.kvb-koeln.de\/qr\/631\/", "OBJECTID": 115 }, "geometry": { "type": "Point", "coordinates": [ 7.006741013881546, 50.966143821344644 ] } },
{ "type": "Feature", "properties": { "NAME": "Von-Sparr-Str.", "KNOTENNUMMER": "632", "TYP": "Stadtbahn", "NR_STADTTEIL": "901", "STADTTEIL": "Mülheim", "NR_STADTBEZIRK": "9", "STADTBEZIRK": "Mülheim", "HYPERLINK": "http:\/\/www.kvb-koeln.de\/qr\/632\/", "OBJECTID": 116 }, "geometry": { "type": "Point", "coordinates": [ 7.011389885230503, 50.970445461913528 ] } },
{ "type": "Feature", "properties": { "NAME": "Mülheim Berliner Str.", "KNOTENNUMMER": "633", "TYP": "Stadtbahn", "NR_STADTTEIL": "901", "STADTTEIL": "Mülheim", "NR_STADTBEZIRK": "9", "STADTBEZIRK": "Mülheim", "HYPERLINK": "http:\/\/www.kvb-koeln.de\/qr\/633\/", "OBJECTID": 117 }, "geometry": { "type": "Point", "coordinates": [ 7.014758612321553, 50.974767043154529 ] } },
{ "type": "Feature", "properties": { "NAME": "Bf Mülheim (U)", "KNOTENNUMMER": "17315", "TYP": "Ubahn", "NR_STADTTEIL": "901", "STADTTEIL": "Mülheim", "NR_STADTBEZIRK": "9", "STADTBEZIRK": "Mülheim", "HYPERLINK": "http:\/\/www.kvb-koeln.de\/qr\/17315\/", "OBJECTID": 118 }, "geometry": { "type": "Point", "coordinates": [ 7.011730791050852, 50.957309118364911 ] } },
{ "type": "Feature", "properties": { "NAME": "Mohnweg", "KNOTENNUMMER": "142", "TYP": "Stadtbahn", "NR_STADTTEIL": "306", "STADTTEIL": "Junkersdorf", "NR_STADTBEZIRK": "3", "STADTBEZIRK": "Lindenthal", "HYPERLINK": "http:\/\/www.kvb-koeln.de\/qr\/142\/", "OBJECTID": 119 }, "geometry": { "type": "Point", "coordinates": [ 6.855368683629545, 50.937965435163413 ] } },
{ "type": "Feature", "properties": { "NAME": "Marsdorf", "KNOTENNUMMER": "235", "TYP": "Stadtbahn", "NR_STADTTEIL": "306", "STADTTEIL": "Junkersdorf", "NR_STADTBEZIRK": "3", "STADTBEZIRK": "Lindenthal", "HYPERLINK": "http:\/\/www.kvb-koeln.de\/qr\/235\/", "OBJECTID": 120 }, "geometry": { "type": "Point", "coordinates": [ 6.85822103632921, 50.917484887990909 ] } },
{ "type": "Feature", "properties": { "NAME": "Haus Vorst", "KNOTENNUMMER": "713", "TYP": "Stadtbahn", "NR_STADTTEIL": "306", "STADTTEIL": "Junkersdorf", "NR_STADTBEZIRK": "3", "STADTBEZIRK": "Lindenthal", "HYPERLINK": "http:\/\/www.kvb-koeln.de\/qr\/713\/", "OBJECTID": 121 }, "geometry": { "type": "Point", "coordinates": [ 6.848418550119987, 50.915677819610131 ] } },
{ "type": "Feature", "properties": { "NAME": "Sülzgürtel", "KNOTENNUMMER": "160", "TYP": "Stadtbahn", "NR_STADTTEIL": "301", "STADTTEIL": "Klettenberg", "NR_STADTBEZIRK": "3", "STADTBEZIRK": "Lindenthal", "HYPERLINK": "http:\/\/www.kvb-koeln.de\/qr\/160\/", "OBJECTID": 122 }, "geometry": { "type": "Point", "coordinates": [ 6.923932995684064, 50.91236250576798 ] } },
{ "type": "Feature", "properties": { "NAME": "Klettenbergpark", "KNOTENNUMMER": "167", "TYP": "Stadtbahn", "NR_STADTTEIL": "301", "STADTTEIL": "Klettenberg", "NR_STADTBEZIRK": "3", "STADTBEZIRK": "Lindenthal", "HYPERLINK": "http:\/\/www.kvb-koeln.de\/qr\/167\/", "OBJECTID": 123 }, "geometry": { "type": "Point", "coordinates": [ 6.919308854085097, 50.907886383656489 ] } },
{ "type": "Feature", "properties": { "NAME": "Akazienweg", "KNOTENNUMMER": "264", "TYP": "Ubahn", "NR_STADTTEIL": "403", "STADTTEIL": "Bickendorf", "NR_STADTBEZIRK": "4", "STADTBEZIRK": "Ehrenfeld", "HYPERLINK": "http:\/\/www.kvb-koeln.de\/qr\/264\/", "OBJECTID": 124 }, "geometry": { "type": "Point", "coordinates": [ 6.89271965380849, 50.96125552989006 ] } },
{ "type": "Feature", "properties": { "NAME": "Äußere Kanalstr.", "KNOTENNUMMER": "262", "TYP": "Ubahn", "NR_STADTTEIL": "403", "STADTTEIL": "Bickendorf", "NR_STADTBEZIRK": "4", "STADTBEZIRK": "Ehrenfeld", "HYPERLINK": "http:\/\/www.kvb-koeln.de\/qr\/262\/", "OBJECTID": 125 }, "geometry": { "type": "Point", "coordinates": [ 6.90200453200133, 50.957067064844352 ] } },
{ "type": "Feature", "properties": { "NAME": "Kalker Friedhof", "KNOTENNUMMER": "539", "TYP": "Stadtbahn", "NR_STADTTEIL": "806", "STADTTEIL": "Merheim", "NR_STADTBEZIRK": "8", "STADTBEZIRK": "Kalk", "HYPERLINK": "http:\/\/www.kvb-koeln.de\/qr\/539\/", "OBJECTID": 126 }, "geometry": { "type": "Point", "coordinates": [ 7.042143141093187, 50.942523689947279 ] } },
{ "type": "Feature", "properties": { "NAME": "Merheim", "KNOTENNUMMER": "540", "TYP": "Stadtbahn", "NR_STADTTEIL": "806", "STADTTEIL": "Merheim", "NR_STADTBEZIRK": "8", "STADTBEZIRK": "Kalk", "HYPERLINK": "http:\/\/www.kvb-koeln.de\/qr\/540\/", "OBJECTID": 127 }, "geometry": { "type": "Point", "coordinates": [ 7.048097182388361, 50.944079458464735 ] } },
{ "type": "Feature", "properties": { "NAME": "Pohligstr.", "KNOTENNUMMER": "52", "TYP": "Stadtbahn", "NR_STADTTEIL": "205", "STADTTEIL": "Zollstock", "NR_STADTBEZIRK": "2", "STADTBEZIRK": "Rodenkirchen", "HYPERLINK": "http:\/\/www.kvb-koeln.de\/qr\/52\/", "OBJECTID": 128 }, "geometry": { "type": "Point", "coordinates": [ 6.94144871709649, 50.91647444317384 ] } },
{ "type": "Feature", "properties": { "NAME": "Herthastr.", "KNOTENNUMMER": "53", "TYP": "Stadtbahn", "NR_STADTTEIL": "205", "STADTTEIL": "Zollstock", "NR_STADTBEZIRK": "2", "STADTBEZIRK": "Rodenkirchen", "HYPERLINK": "http:\/\/www.kvb-koeln.de\/qr\/53\/", "OBJECTID": 129 }, "geometry": { "type": "Point", "coordinates": [ 6.940794333850393, 50.91293791912355 ] } },
{ "type": "Feature", "properties": { "NAME": "Gottesweg", "KNOTENNUMMER": "54", "TYP": "Stadtbahn", "NR_STADTTEIL": "205", "STADTTEIL": "Zollstock", "NR_STADTBEZIRK": "2", "STADTBEZIRK": "Rodenkirchen", "HYPERLINK": "http:\/\/www.kvb-koeln.de\/qr\/54\/", "OBJECTID": 130 }, "geometry": { "type": "Point", "coordinates": [ 6.941567027886696, 50.910360731469865 ] } },
{ "type": "Feature", "properties": { "NAME": "Zollstockgürtel", "KNOTENNUMMER": "56", "TYP": "Stadtbahn", "NR_STADTTEIL": "205", "STADTTEIL": "Zollstock", "NR_STADTBEZIRK": "2", "STADTBEZIRK": "Rodenkirchen", "HYPERLINK": "http:\/\/www.kvb-koeln.de\/qr\/56\/", "OBJECTID": 131 }, "geometry": { "type": "Point", "coordinates": [ 6.94211822843236, 50.905268305094062 ] } },
{ "type": "Feature", "properties": { "NAME": "Zollstock Südfriedhof", "KNOTENNUMMER": "57", "TYP": "Stadtbahn", "NR_STADTTEIL": "205", "STADTTEIL": "Zollstock", "NR_STADTBEZIRK": "2", "STADTBEZIRK": "Rodenkirchen", "HYPERLINK": "http:\/\/www.kvb-koeln.de\/qr\/57\/", "OBJECTID": 132 }, "geometry": { "type": "Point", "coordinates": [ 6.944120666236785, 50.900946210806374 ] } },
{ "type": "Feature", "properties": { "NAME": "Kalk Kapelle", "KNOTENNUMMER": "513", "TYP": "Ubahn", "NR_STADTTEIL": "802", "STADTTEIL": "Kalk", "NR_STADTBEZIRK": "8", "STADTBEZIRK": "Kalk", "HYPERLINK": "http:\/\/www.kvb-koeln.de\/qr\/513\/", "OBJECTID": 133 }, "geometry": { "type": "Point", "coordinates": [ 7.00854343444278, 50.93894452500686 ] } },
{ "type": "Feature", "properties": { "NAME": "Kalk Post", "KNOTENNUMMER": "512", "TYP": "Ubahn", "NR_STADTTEIL": "802", "STADTTEIL": "Kalk", "NR_STADTBEZIRK": "8", "STADTBEZIRK": "Kalk", "HYPERLINK": "http:\/\/www.kvb-koeln.de\/qr\/512\/", "OBJECTID": 134 }, "geometry": { "type": "Point", "coordinates": [ 6.998482844634033, 50.937529827073575 ] } },
{ "type": "Feature", "properties": { "NAME": "Schaffrathsgasse", "KNOTENNUMMER": "242", "TYP": "Stadtbahn", "NR_STADTTEIL": "404", "STADTTEIL": "Vogelsang", "NR_STADTBEZIRK": "4", "STADTBEZIRK": "Ehrenfeld", "HYPERLINK": "http:\/\/www.kvb-koeln.de\/qr\/242\/", "OBJECTID": 135 }, "geometry": { "type": "Point", "coordinates": [ 6.870166164877992, 50.971556716113938 ] } },
{ "type": "Feature", "properties": { "NAME": "Wolffsohnstr.", "KNOTENNUMMER": "282", "TYP": "Stadtbahn", "NR_STADTTEIL": "404", "STADTTEIL": "Vogelsang", "NR_STADTBEZIRK": "4", "STADTBEZIRK": "Ehrenfeld", "HYPERLINK": "http:\/\/www.kvb-koeln.de\/qr\/282\/", "OBJECTID": 136 }, "geometry": { "type": "Point", "coordinates": [ 6.884538003920312, 50.965156227948732 ] } },
{ "type": "Feature", "properties": { "NAME": "Westfriedhof", "KNOTENNUMMER": "283", "TYP": "Stadtbahn", "NR_STADTTEIL": "404", "STADTTEIL": "Vogelsang", "NR_STADTBEZIRK": "4", "STADTBEZIRK": "Ehrenfeld", "HYPERLINK": "http:\/\/www.kvb-koeln.de\/qr\/283\/", "OBJECTID": 137 }, "geometry": { "type": "Point", "coordinates": [ 6.878474523190771, 50.967458319042308 ] } },
{ "type": "Feature", "properties": { "NAME": "Bocklemünd", "KNOTENNUMMER": "291", "TYP": "Stadtbahn", "NR_STADTTEIL": "404", "STADTTEIL": "Vogelsang", "NR_STADTBEZIRK": "4", "STADTBEZIRK": "Ehrenfeld", "HYPERLINK": "http:\/\/www.kvb-koeln.de\/qr\/291\/", "OBJECTID": 138 }, "geometry": { "type": "Point", "coordinates": [ 6.872816166829167, 50.969379516411543 ] } },
{ "type": "Feature", "properties": { "NAME": "Ostheim", "KNOTENNUMMER": "533", "TYP": "Stadtbahn", "NR_STADTTEIL": "805", "STADTTEIL": "Ostheim", "NR_STADTBEZIRK": "8", "STADTBEZIRK": "Kalk", "HYPERLINK": "http:\/\/www.kvb-koeln.de\/qr\/533\/", "OBJECTID": 139 }, "geometry": { "type": "Point", "coordinates": [ 7.041234392314505, 50.929236519614832 ] } },
{ "type": "Feature", "properties": { "NAME": "Autobahn (Stadtbahn)", "KNOTENNUMMER": "534", "TYP": "Stadtbahn", "NR_STADTTEIL": "805", "STADTTEIL": "Ostheim", "NR_STADTBEZIRK": "8", "STADTBEZIRK": "Kalk", "HYPERLINK": "http:\/\/www.kvb-koeln.de\/qr\/534\/", "OBJECTID": 140 }, "geometry": { "type": "Point", "coordinates": [ 7.053803577796213, 50.927119040227957 ] } },
{ "type": "Feature", "properties": { "NAME": "Subbelrather Str.\/Gürtel", "KNOTENNUMMER": "245", "TYP": "Stadtbahn", "NR_STADTTEIL": "402", "STADTTEIL": "Neuehrenfeld", "NR_STADTBEZIRK": "4", "STADTBEZIRK": "Ehrenfeld", "HYPERLINK": "http:\/\/www.kvb-koeln.de\/qr\/245\/", "OBJECTID": 141 }, "geometry": { "type": "Point", "coordinates": [ 6.921242910198923, 50.954687457286937 ] } },
{ "type": "Feature", "properties": { "NAME": "Nußbaumerstr.", "KNOTENNUMMER": "246", "TYP": "Stadtbahn", "NR_STADTTEIL": "402", "STADTTEIL": "Neuehrenfeld", "NR_STADTBEZIRK": "4", "STADTBEZIRK": "Ehrenfeld", "HYPERLINK": "http:\/\/www.kvb-koeln.de\/qr\/246\/", "OBJECTID": 142 }, "geometry": { "type": "Point", "coordinates": [ 6.923566211096468, 50.957015296436026 ] } },
{ "type": "Feature", "properties": { "NAME": "Lenauplatz", "KNOTENNUMMER": "247", "TYP": "Stadtbahn", "NR_STADTTEIL": "402", "STADTTEIL": "Neuehrenfeld", "NR_STADTBEZIRK": "4", "STADTBEZIRK": "Ehrenfeld", "HYPERLINK": "http:\/\/www.kvb-koeln.de\/qr\/247\/", "OBJECTID": 143 }, "geometry": { "type": "Point", "coordinates": [ 6.918330673984985, 50.958566805408658 ] } },
{ "type": "Feature", "properties": { "NAME": "Iltisstr.", "KNOTENNUMMER": "249", "TYP": "Stadtbahn", "NR_STADTTEIL": "402", "STADTTEIL": "Neuehrenfeld", "NR_STADTBEZIRK": "4", "STADTBEZIRK": "Ehrenfeld", "HYPERLINK": "http:\/\/www.kvb-koeln.de\/qr\/249\/", "OBJECTID": 144 }, "geometry": { "type": "Point", "coordinates": [ 6.912013391660453, 50.965223445815624 ] } },
{ "type": "Feature", "properties": { "NAME": "Schönhauser Str.", "KNOTENNUMMER": "65", "TYP": "Stadtbahn", "NR_STADTTEIL": "201", "STADTTEIL": "Bayenthal", "NR_STADTBEZIRK": "2", "STADTBEZIRK": "Rodenkirchen", "HYPERLINK": "http:\/\/www.kvb-koeln.de\/qr\/65\/", "OBJECTID": 145 }, "geometry": { "type": "Point", "coordinates": [ 6.972072597418242, 50.914092844051865 ] } },
{ "type": "Feature", "properties": { "NAME": "Aachener Str.\/Gürtel", "KNOTENNUMMER": "178", "TYP": "Stadtbahn", "NR_STADTTEIL": "304", "STADTTEIL": "Braunsfeld", "NR_STADTBEZIRK": "3", "STADTBEZIRK": "Lindenthal", "HYPERLINK": "http:\/\/www.kvb-koeln.de\/qr\/178\/", "OBJECTID": 146 }, "geometry": { "type": "Point", "coordinates": [ 6.908544550725736, 50.937006201033384 ] } },
{ "type": "Feature", "properties": { "NAME": "Maarweg", "KNOTENNUMMER": "179", "TYP": "Stadtbahn", "NR_STADTTEIL": "304", "STADTTEIL": "Braunsfeld", "NR_STADTBEZIRK": "3", "STADTBEZIRK": "Lindenthal", "HYPERLINK": "http:\/\/www.kvb-koeln.de\/qr\/179\/", "OBJECTID": 147 }, "geometry": { "type": "Point", "coordinates": [ 6.899357746356443, 50.937194226249218 ] } },
{ "type": "Feature", "properties": { "NAME": "Clarenbachstift", "KNOTENNUMMER": "180", "TYP": "Stadtbahn", "NR_STADTTEIL": "304", "STADTTEIL": "Braunsfeld", "NR_STADTBEZIRK": "3", "STADTBEZIRK": "Lindenthal", "HYPERLINK": "http:\/\/www.kvb-koeln.de\/qr\/180\/", "OBJECTID": 148 }, "geometry": { "type": "Point", "coordinates": [ 6.894295503706538, 50.937323024025133 ] } },
{ "type": "Feature", "properties": { "NAME": "Eupener Str.", "KNOTENNUMMER": "181", "TYP": "Stadtbahn", "NR_STADTTEIL": "304", "STADTTEIL": "Braunsfeld", "NR_STADTBEZIRK": "3", "STADTBEZIRK": "Lindenthal", "HYPERLINK": "http:\/\/www.kvb-koeln.de\/qr\/181\/", "OBJECTID": 149 }, "geometry": { "type": "Point", "coordinates": [ 6.889233401921825, 50.93746058970391 ] } },
{ "type": "Feature", "properties": { "NAME": "Severinstr.", "KNOTENNUMMER": "11", "TYP": "Ubahn", "NR_STADTTEIL": "101", "STADTTEIL": "Altstadt\/Süd", "NR_STADTBEZIRK": "1", "STADTBEZIRK": "Innenstadt", "HYPERLINK": "http:\/\/www.kvb-koeln.de\/qr\/11\/", "OBJECTID": 150 }, "geometry": { "type": "Point", "coordinates": [ 6.956866719312806, 50.929095908158331 ] } },
{ "type": "Feature", "properties": { "NAME": "Poststr.", "KNOTENNUMMER": "3", "TYP": "Ubahn", "NR_STADTTEIL": "101", "STADTTEIL": "Altstadt\/Süd", "NR_STADTBEZIRK": "1", "STADTBEZIRK": "Innenstadt", "HYPERLINK": "http:\/\/www.kvb-koeln.de\/qr\/3\/", "OBJECTID": 151 }, "geometry": { "type": "Point", "coordinates": [ 6.95006865357511, 50.931245969556997 ] } },
{ "type": "Feature", "properties": { "NAME": "Neumarkt", "KNOTENNUMMER": "2", "TYP": "Ubahn", "NR_STADTTEIL": "101", "STADTTEIL": "Altstadt\/Süd", "NR_STADTBEZIRK": "1", "STADTBEZIRK": "Innenstadt", "HYPERLINK": "http:\/\/www.kvb-koeln.de\/qr\/2\/", "OBJECTID": 152 }, "geometry": { "type": "Point", "coordinates": [ 6.948905997717017, 50.93562424121815 ] } },
{ "type": "Feature", "properties": { "NAME": "Mauritiuskirche", "KNOTENNUMMER": "4", "TYP": "Stadtbahn", "NR_STADTTEIL": "101", "STADTTEIL": "Altstadt\/Süd", "NR_STADTBEZIRK": "1", "STADTBEZIRK": "Innenstadt", "HYPERLINK": "http:\/\/www.kvb-koeln.de\/qr\/4\/", "OBJECTID": 153 }, "geometry": { "type": "Point", "coordinates": [ 6.945064270239238, 50.934190158090608 ] } },
{ "type": "Feature", "properties": { "NAME": "Rudolfplatz (Stadtbahn)", "KNOTENNUMMER": "17163", "TYP": "Stadtbahn", "NR_STADTTEIL": "101", "STADTTEIL": "Altstadt\/Süd", "NR_STADTBEZIRK": "1", "STADTBEZIRK": "Innenstadt", "HYPERLINK": "http:\/\/www.kvb-koeln.de\/qr\/17163\/", "OBJECTID": 154 }, "geometry": { "type": "Point", "coordinates": [ 6.939614941099445, 50.936265748817746 ] } },
{ "type": "Feature", "properties": { "NAME": "Rudolfplatz (Stadtbahn)", "KNOTENNUMMER": "17192", "TYP": "Stadtbahn", "NR_STADTTEIL": "101", "STADTTEIL": "Altstadt\/Süd", "NR_STADTBEZIRK": "1", "STADTBEZIRK": "Innenstadt", "HYPERLINK": "http:\/\/www.kvb-koeln.de\/qr\/17192\/", "OBJECTID": 155 }, "geometry": { "type": "Point", "coordinates": [ 6.940115950438778, 50.935713365581215 ] } },
{ "type": "Feature", "properties": { "NAME": "Neumarkt (Stadtbahn)", "KNOTENNUMMER": "17220", "TYP": "Stadtbahn", "NR_STADTTEIL": "101", "STADTTEIL": "Altstadt\/Süd", "NR_STADTBEZIRK": "1", "STADTBEZIRK": "Innenstadt", "HYPERLINK": "http:\/\/www.kvb-koeln.de\/qr\/17220\/", "OBJECTID": 156 }, "geometry": { "type": "Point", "coordinates": [ 6.94768566343668, 50.935777987014447 ] } },
{ "type": "Feature", "properties": { "NAME": "Neumarkt (Stadtbahn)", "KNOTENNUMMER": "17222", "TYP": "Stadtbahn", "NR_STADTTEIL": "101", "STADTTEIL": "Altstadt\/Süd", "NR_STADTBEZIRK": "1", "STADTBEZIRK": "Innenstadt", "HYPERLINK": "http:\/\/www.kvb-koeln.de\/qr\/17222\/", "OBJECTID": 157 }, "geometry": { "type": "Point", "coordinates": [ 6.947127847317164, 50.936330863824544 ] } },
{ "type": "Feature", "properties": { "NAME": "Breslauer Platz\/Hbf", "KNOTENNUMMER": "9", "TYP": "Ubahn", "NR_STADTTEIL": "103", "STADTTEIL": "Altstadt\/Nord", "NR_STADTBEZIRK": "1", "STADTBEZIRK": "Innenstadt", "HYPERLINK": "http:\/\/www.kvb-koeln.de\/qr\/9\/", "OBJECTID": 158 }, "geometry": { "type": "Point", "coordinates": [ 6.958645850043435, 50.944363156488109 ] } },
{ "type": "Feature", "properties": { "NAME": "Appellhofplatz", "KNOTENNUMMER": "7", "TYP": "Ubahn", "NR_STADTTEIL": "103", "STADTTEIL": "Altstadt\/Nord", "NR_STADTBEZIRK": "1", "STADTBEZIRK": "Innenstadt", "HYPERLINK": "http:\/\/www.kvb-koeln.de\/qr\/7\/", "OBJECTID": 159 }, "geometry": { "type": "Point", "coordinates": [ 6.950431704476717, 50.93998063320597 ] } },
{ "type": "Feature", "properties": { "NAME": "Appellhofplatz (U)", "KNOTENNUMMER": "17199", "TYP": "Ubahn", "NR_STADTTEIL": "103", "STADTTEIL": "Altstadt\/Nord", "NR_STADTBEZIRK": "1", "STADTBEZIRK": "Innenstadt", "HYPERLINK": "http:\/\/www.kvb-koeln.de\/qr\/17199\/", "OBJECTID": 160 }, "geometry": { "type": "Point", "coordinates": [ 6.9502990574551, 50.941150324160738 ] } },
{ "type": "Feature", "properties": { "NAME": "Dom\/Hbf (U)", "KNOTENNUMMER": "17190", "TYP": "Ubahn", "NR_STADTTEIL": "103", "STADTTEIL": "Altstadt\/Nord", "NR_STADTBEZIRK": "1", "STADTBEZIRK": "Innenstadt", "HYPERLINK": "http:\/\/www.kvb-koeln.de\/qr\/17190\/", "OBJECTID": 161 }, "geometry": { "type": "Point", "coordinates": [ 6.956728641617145, 50.941771988986908 ] } },
{ "type": "Feature", "properties": { "NAME": "Heumarkt", "KNOTENNUMMER": "1", "TYP": "Stadtbahn", "NR_STADTTEIL": "103", "STADTTEIL": "Altstadt\/Nord", "NR_STADTBEZIRK": "1", "STADTBEZIRK": "Innenstadt", "HYPERLINK": "http:\/\/www.kvb-koeln.de\/qr\/1\/", "OBJECTID": 162 }, "geometry": { "type": "Point", "coordinates": [ 6.959990118278099, 50.935713369686965 ] } },
{ "type": "Feature", "properties": { "NAME": "Leyendeckerstr.", "KNOTENNUMMER": "255", "TYP": "Ubahn", "NR_STADTTEIL": "401", "STADTTEIL": "Ehrenfeld", "NR_STADTBEZIRK": "4", "STADTBEZIRK": "Ehrenfeld", "HYPERLINK": "http:\/\/www.kvb-koeln.de\/qr\/255\/", "OBJECTID": 163 }, "geometry": { "type": "Point", "coordinates": [ 6.909951923269717, 50.954434443408999 ] } },
{ "type": "Feature", "properties": { "NAME": "Venloer Str.\/Gürtel", "KNOTENNUMMER": "251", "TYP": "Ubahn", "NR_STADTTEIL": "401", "STADTTEIL": "Ehrenfeld", "NR_STADTBEZIRK": "4", "STADTBEZIRK": "Ehrenfeld", "HYPERLINK": "http:\/\/www.kvb-koeln.de\/qr\/251\/", "OBJECTID": 164 }, "geometry": { "type": "Point", "coordinates": [ 6.916713841870272, 50.950183535280161 ] } },
{ "type": "Feature", "properties": { "NAME": "Körnerstr.", "KNOTENNUMMER": "237", "TYP": "Ubahn", "NR_STADTTEIL": "401", "STADTTEIL": "Ehrenfeld", "NR_STADTBEZIRK": "4", "STADTBEZIRK": "Ehrenfeld", "HYPERLINK": "http:\/\/www.kvb-koeln.de\/qr\/237\/", "OBJECTID": 165 }, "geometry": { "type": "Point", "coordinates": [ 6.920305703516886, 50.948312462897491 ] } },
{ "type": "Feature", "properties": { "NAME": "Piusstr.", "KNOTENNUMMER": "236", "TYP": "Ubahn", "NR_STADTTEIL": "401", "STADTTEIL": "Ehrenfeld", "NR_STADTBEZIRK": "4", "STADTBEZIRK": "Ehrenfeld", "HYPERLINK": "http:\/\/www.kvb-koeln.de\/qr\/236\/", "OBJECTID": 166 }, "geometry": { "type": "Point", "coordinates": [ 6.925795521317155, 50.946012731203062 ] } },
{ "type": "Feature", "properties": { "NAME": "Oskar-Jäger-Str.\/Gürtel", "KNOTENNUMMER": "182", "TYP": "Stadtbahn", "NR_STADTTEIL": "401", "STADTTEIL": "Ehrenfeld", "NR_STADTBEZIRK": "4", "STADTBEZIRK": "Ehrenfeld", "HYPERLINK": "http:\/\/www.kvb-koeln.de\/qr\/182\/", "OBJECTID": 167 }, "geometry": { "type": "Point", "coordinates": [ 6.910990497320614, 50.939863705729863 ] } },
{ "type": "Feature", "properties": { "NAME": "Gutenbergstr.", "KNOTENNUMMER": "238", "TYP": "Stadtbahn", "NR_STADTTEIL": "401", "STADTTEIL": "Ehrenfeld", "NR_STADTBEZIRK": "4", "STADTBEZIRK": "Ehrenfeld", "HYPERLINK": "http:\/\/www.kvb-koeln.de\/qr\/238\/", "OBJECTID": 168 }, "geometry": { "type": "Point", "coordinates": [ 6.92827291463525, 50.950370835422362 ] } },
{ "type": "Feature", "properties": { "NAME": "Liebigstr.", "KNOTENNUMMER": "239", "TYP": "Stadtbahn", "NR_STADTTEIL": "401", "STADTTEIL": "Ehrenfeld", "NR_STADTBEZIRK": "4", "STADTBEZIRK": "Ehrenfeld", "HYPERLINK": "http:\/\/www.kvb-koeln.de\/qr\/239\/", "OBJECTID": 169 }, "geometry": { "type": "Point", "coordinates": [ 6.924156346345477, 50.952327211921038 ] } },
{ "type": "Feature", "properties": { "NAME": "Weinsbergstr.\/Gürtel", "KNOTENNUMMER": "254", "TYP": "Stadtbahn", "NR_STADTTEIL": "401", "STADTTEIL": "Ehrenfeld", "NR_STADTBEZIRK": "4", "STADTBEZIRK": "Ehrenfeld", "HYPERLINK": "http:\/\/www.kvb-koeln.de\/qr\/254\/", "OBJECTID": 170 }, "geometry": { "type": "Point", "coordinates": [ 6.912715719175678, 50.945135927350989 ] } },
{ "type": "Feature", "properties": { "NAME": "Lohsestr.", "KNOTENNUMMER": "305", "TYP": "Ubahn", "NR_STADTTEIL": "501", "STADTTEIL": "Nippes", "NR_STADTBEZIRK": "5", "STADTBEZIRK": "Nippes", "HYPERLINK": "http:\/\/www.kvb-koeln.de\/qr\/305\/", "OBJECTID": 171 }, "geometry": { "type": "Point", "coordinates": [ 6.95525665393106, 50.958108619963483 ] } },
{ "type": "Feature", "properties": { "NAME": "Florastr.", "KNOTENNUMMER": "304", "TYP": "Ubahn", "NR_STADTTEIL": "501", "STADTTEIL": "Nippes", "NR_STADTBEZIRK": "5", "STADTBEZIRK": "Nippes", "HYPERLINK": "http:\/\/www.kvb-koeln.de\/qr\/304\/", "OBJECTID": 172 }, "geometry": { "type": "Point", "coordinates": [ 6.953619729625661, 50.965052743547766 ] } },
{ "type": "Feature", "properties": { "NAME": "Neusser Str.\/Gürtel", "KNOTENNUMMER": "303", "TYP": "Ubahn", "NR_STADTTEIL": "501", "STADTTEIL": "Nippes", "NR_STADTBEZIRK": "5", "STADTBEZIRK": "Nippes", "HYPERLINK": "http:\/\/www.kvb-koeln.de\/qr\/303\/", "OBJECTID": 173 }, "geometry": { "type": "Point", "coordinates": [ 6.9513627892144, 50.972334492838918 ] } },
{ "type": "Feature", "properties": { "NAME": "Niehl", "KNOTENNUMMER": "342", "TYP": "Stadtbahn", "NR_STADTTEIL": "504", "STADTTEIL": "Niehl", "NR_STADTBEZIRK": "5", "STADTBEZIRK": "Nippes", "HYPERLINK": "http:\/\/www.kvb-koeln.de\/qr\/342\/", "OBJECTID": 174 }, "geometry": { "type": "Point", "coordinates": [ 6.955682533370541, 50.994799304956473 ] } },
{ "type": "Feature", "properties": { "NAME": "Niehl Sebastianstr.", "KNOTENNUMMER": "343", "TYP": "Stadtbahn", "NR_STADTTEIL": "504", "STADTTEIL": "Niehl", "NR_STADTBEZIRK": "5", "STADTBEZIRK": "Nippes", "HYPERLINK": "http:\/\/www.kvb-koeln.de\/qr\/343\/", "OBJECTID": 175 }, "geometry": { "type": "Point", "coordinates": [ 6.961396190950226, 50.985232783969984 ] } },
{ "type": "Feature", "properties": { "NAME": "Geestemünder Str.", "KNOTENNUMMER": "367", "TYP": "Stadtbahn", "NR_STADTTEIL": "504", "STADTTEIL": "Niehl", "NR_STADTBEZIRK": "5", "STADTBEZIRK": "Nippes", "HYPERLINK": "http:\/\/www.kvb-koeln.de\/qr\/367\/", "OBJECTID": 176 }, "geometry": { "type": "Point", "coordinates": [ 6.955287017324292, 51.001895039759113 ] } },
{ "type": "Feature", "properties": { "NAME": "Fordwerke Süd", "KNOTENNUMMER": "368", "TYP": "Stadtbahn", "NR_STADTTEIL": "504", "STADTTEIL": "Niehl", "NR_STADTBEZIRK": "5", "STADTBEZIRK": "Nippes", "HYPERLINK": "http:\/\/www.kvb-koeln.de\/qr\/368\/", "OBJECTID": 177 }, "geometry": { "type": "Point", "coordinates": [ 6.955382712029627, 51.005858499238343 ] } },
{ "type": "Feature", "properties": { "NAME": "Fordwerke Mitte", "KNOTENNUMMER": "369", "TYP": "Stadtbahn", "NR_STADTTEIL": "504", "STADTTEIL": "Niehl", "NR_STADTBEZIRK": "5", "STADTBEZIRK": "Nippes", "HYPERLINK": "http:\/\/www.kvb-koeln.de\/qr\/369\/", "OBJECTID": 178 }, "geometry": { "type": "Point", "coordinates": [ 6.955421010751931, 51.011880951148406 ] } },
{ "type": "Feature", "properties": { "NAME": "Fordwerke Nord", "KNOTENNUMMER": "370", "TYP": "Stadtbahn", "NR_STADTTEIL": "504", "STADTTEIL": "Niehl", "NR_STADTBEZIRK": "5", "STADTBEZIRK": "Nippes", "HYPERLINK": "http:\/\/www.kvb-koeln.de\/qr\/370\/", "OBJECTID": 179 }, "geometry": { "type": "Point", "coordinates": [ 6.955419927459801, 51.017373358286008 ] } },
{ "type": "Feature", "properties": { "NAME": "Nesselrodestr.", "KNOTENNUMMER": "818", "TYP": "Stadtbahn", "NR_STADTTEIL": "504", "STADTTEIL": "Niehl", "NR_STADTBEZIRK": "5", "STADTBEZIRK": "Nippes", "HYPERLINK": "http:\/\/www.kvb-koeln.de\/qr\/818\/", "OBJECTID": 180 }, "geometry": { "type": "Point", "coordinates": [ 6.968871832409145, 50.976972772789637 ] } },
{ "type": "Feature", "properties": { "NAME": "Ensen Gilgaustr.", "KNOTENNUMMER": "451", "TYP": "Stadtbahn", "NR_STADTTEIL": "703", "STADTTEIL": "Ensen", "NR_STADTBEZIRK": "7", "STADTBEZIRK": "Porz", "HYPERLINK": "http:\/\/www.kvb-koeln.de\/qr\/451\/", "OBJECTID": 181 }, "geometry": { "type": "Point", "coordinates": [ 7.03114690731517, 50.899544224716514 ] } },
{ "type": "Feature", "properties": { "NAME": "Ensen Kloster", "KNOTENNUMMER": "452", "TYP": "Stadtbahn", "NR_STADTTEIL": "703", "STADTTEIL": "Ensen", "NR_STADTBEZIRK": "7", "STADTBEZIRK": "Porz", "HYPERLINK": "http:\/\/www.kvb-koeln.de\/qr\/452\/", "OBJECTID": 182 }, "geometry": { "type": "Point", "coordinates": [ 7.047312144001636, 50.897116895217835 ] } },
{ "type": "Feature", "properties": { "NAME": "Deutz-Kalker Bad", "KNOTENNUMMER": "44", "TYP": "Ubahn", "NR_STADTTEIL": "105", "STADTTEIL": "Deutz", "NR_STADTBEZIRK": "1", "STADTBEZIRK": "Innenstadt", "HYPERLINK": "http:\/\/www.kvb-koeln.de\/qr\/44\/", "OBJECTID": 183 }, "geometry": { "type": "Point", "coordinates": [ 6.98614021180492, 50.936484144531718 ] } },
{ "type": "Feature", "properties": { "NAME": "Deutzer Freiheit", "KNOTENNUMMER": "39", "TYP": "Ubahn", "NR_STADTTEIL": "105", "STADTTEIL": "Deutz", "NR_STADTBEZIRK": "1", "STADTBEZIRK": "Innenstadt", "HYPERLINK": "http:\/\/www.kvb-koeln.de\/qr\/39\/", "OBJECTID": 184 }, "geometry": { "type": "Point", "coordinates": [ 6.970367000980496, 50.936679294798779 ] } },
{ "type": "Feature", "properties": { "NAME": "Bf Deutz\/Messe (U)", "KNOTENNUMMER": "17217", "TYP": "Ubahn", "NR_STADTTEIL": "105", "STADTTEIL": "Deutz", "NR_STADTBEZIRK": "1", "STADTBEZIRK": "Innenstadt", "HYPERLINK": "http:\/\/www.kvb-koeln.de\/qr\/17217\/", "OBJECTID": 185 }, "geometry": { "type": "Point", "coordinates": [ 6.977800925509002, 50.939754520012457 ] } },
{ "type": "Feature", "properties": { "NAME": "Suevenstr.", "KNOTENNUMMER": "40", "TYP": "Stadtbahn", "NR_STADTTEIL": "105", "STADTTEIL": "Deutz", "NR_STADTBEZIRK": "1", "STADTBEZIRK": "Innenstadt", "HYPERLINK": "http:\/\/www.kvb-koeln.de\/qr\/40\/", "OBJECTID": 186 }, "geometry": { "type": "Point", "coordinates": [ 6.97666482493043, 50.933066979043303 ] } },
{ "type": "Feature", "properties": { "NAME": "Koelnmesse", "KNOTENNUMMER": "42", "TYP": "Stadtbahn", "NR_STADTTEIL": "105", "STADTTEIL": "Deutz", "NR_STADTBEZIRK": "1", "STADTBEZIRK": "Innenstadt", "HYPERLINK": "http:\/\/www.kvb-koeln.de\/qr\/42\/", "OBJECTID": 187 }, "geometry": { "type": "Point", "coordinates": [ 6.981637220349655, 50.942886558232352 ] } },
{ "type": "Feature", "properties": { "NAME": "Drehbrücke", "KNOTENNUMMER": "46", "TYP": "Stadtbahn", "NR_STADTTEIL": "105", "STADTTEIL": "Deutz", "NR_STADTBEZIRK": "1", "STADTBEZIRK": "Innenstadt", "HYPERLINK": "http:\/\/www.kvb-koeln.de\/qr\/46\/", "OBJECTID": 188 }, "geometry": { "type": "Point", "coordinates": [ 6.974961171653782, 50.928469692592344 ] } },
{ "type": "Feature", "properties": { "NAME": "Poller Kirchweg", "KNOTENNUMMER": "47", "TYP": "Stadtbahn", "NR_STADTTEIL": "105", "STADTTEIL": "Deutz", "NR_STADTBEZIRK": "1", "STADTBEZIRK": "Innenstadt", "HYPERLINK": "http:\/\/www.kvb-koeln.de\/qr\/47\/", "OBJECTID": 189 }, "geometry": { "type": "Point", "coordinates": [ 6.980023663573789, 50.923671916828965 ] } },
{ "type": "Feature", "properties": { "NAME": "Bf Deutz \/ LANXESS arena (Bus)", "KNOTENNUMMER": "17392", "TYP": "Stadtbahn", "NR_STADTTEIL": "105", "STADTTEIL": "Deutz", "NR_STADTBEZIRK": "1", "STADTBEZIRK": "Innenstadt", "HYPERLINK": "http:\/\/www.kvb-koeln.de\/qr\/17392\/", "OBJECTID": 190 }, "geometry": { "type": "Point", "coordinates": [ 6.978485309419113, 50.939146498446938 ] } }
]
}
